nid,glocation,country,state,latitude,longitude,pub_date,year,month,weekday
2,Louisiana,United States,Louisiana,30.9842977,-91.96233269999999,2015-01-01,2015,January,Thursday
3,United States,United States, ,37.09024,-95.712891,2015-01-01,2015,January,Thursday
5,Boston (Mass),United States,Massachusetts,42.3600825,-71.0588801,2015-01-01,2015,January,Thursday
6,Killeen (Tex),United States,Texas,31.1171194,-97.72779589999999,2015-01-01,2015,January,Thursday
11,"East Village (Manhattan, NY)",United States,New York,40.7264773,-73.98153370000001,2015-01-01,2015,January,Thursday
12,Naples (Fla),United States,Florida,26.1420358,-81.7948103,2015-01-01,2015,January,Thursday
13,Europe, , ,54.5259614,15.2551187,2015-01-01,2015,January,Thursday
17,Japan,Japan, ,36.204824,138.252924,2015-01-01,2015,January,Thursday
18,Dagestan (Russia),Russia,Republic of Dagestan,42.14318859999999,47.0949799,2015-01-01,2015,January,Thursday
21,Turkey,Turkey, ,38.963745,35.243322,2015-01-01,2015,January,Thursday
23,Las Cruces (NM),United States,New Mexico,32.3199396,-106.7636538,2015-01-01,2015,January,Thursday
24,Peachtree City (Ga),United States,Georgia,33.3968557,-84.59634319999999,2015-01-01,2015,January,Thursday
37,Virginia,United States,Virginia,37.4315734,-78.6568942,2015-01-01,2015,January,Thursday
39,Pennsylvania,United States,Pennsylvania,41.2033216,-77.1945247,2015-01-01,2015,January,Thursday
42,ANTARCTIC REGIONS,Antarctica, ,-75.250973,-0.071389,2015-01-01,2015,January,Thursday
55,New Zealand,New Zealand, ,-40.900557,174.885971,2015-01-01,2015,January,Thursday
60,Kentucky,United States,Kentucky,37.8393332,-84.2700179,2015-01-02,2015,January,Friday
61,Michigan,United States,Michigan,44.3148443,-85.60236429999999,2015-01-02,2015,January,Friday
62,Colorado,United States,Colorado,39.5500507,-105.7820674,2015-01-02,2015,January,Friday
76,Florida,United States,Florida,27.6648274,-81.5157535,2015-01-02,2015,January,Friday
89,Nebraska,United States,Nebraska,41.4925374,-99.9018131,2015-01-02,2015,January,Friday
99,Cape Canaveral (Fla),United States,Florida,28.3922182,-80.60771319999999,2015-01-02,2015,January,Friday
103,Vernon (Vt),United States,Vermont,42.7620271,-72.5134223,2015-01-02,2015,January,Friday
107,Las Vegas (Nev),United States,Nevada,36.1699412,-115.1398296,2015-01-02,2015,January,Friday
112,France,France, ,46.227638,2.213749,2015-01-02,2015,January,Friday
113,Gilbert (Ariz),United States,Arizona,33.3528264,-111.789027,2015-01-02,2015,January,Friday
128,Ferguson (Mo),United States,Missouri,38.7442175,-90.3053915,2015-01-02,2015,January,Friday
129,Quebec Province (Canada),Canada,Quebec,52.9399159,-73.5491361,2015-01-02,2015,January,Friday
135,Indonesia,Indonesia, ,-0.789275,113.921327,2015-01-02,2015,January,Friday
136,Iceland,Iceland, ,64.963051,-19.020835,2015-01-02,2015,January,Friday
138,Botswana,Botswana, ,-22.328474,24.684866,2015-01-02,2015,January,Friday
140,Cambridge (Mass),United States,Massachusetts,42.3736158,-71.10973349999999,2015-01-02,2015,January,Friday
143,Wisconsin,United States,Wisconsin,43.7844397,-88.7878678,2015-01-02,2015,January,Friday
146,California,United States,California,36.778261,-119.4179324,2015-01-02,2015,January,Friday
151,ARGENTINA,Argentina, ,-38.416097,-63.61667199999999,2015-01-02,2015,January,Friday
155,Illinois,United States,Illinois,40.6331249,-89.3985283,2015-01-02,2015,January,Friday
157,"Mission District (San Francisco, Calif)",United States,California,37.7598648,-122.4147977,2015-01-02,2015,January,Friday
161,Guantanamo Bay Naval Base (Cuba),Cuba, ,19.9030921,-75.0966509,2015-01-03,2015,January,Saturday
169,Great Britain,United Kingdom, ,53.8337367,-2.4290148,2015-01-03,2015,January,Saturday
174,Portugal,Portugal, ,39.39987199999999,-8.224454,2015-01-03,2015,January,Saturday
185,Worcester (Mass),United States,Massachusetts,42.2625932,-71.8022934,2015-01-03,2015,January,Saturday
199,Houston (Tex),United States,Texas,29.7604267,-95.3698028,2015-01-03,2015,January,Saturday
200,New York City,United States,New York,40.7127753,-74.0059728,2015-01-03,2015,January,Saturday
203,El Paso (Tex),United States,Texas,31.7618778,-106.4850217,2015-01-03,2015,January,Saturday
207,Atlanta (Ga),United States,Georgia,33.7489954,-84.3879824,2015-01-03,2015,January,Saturday
208,Moab (Utah),United States,Utah,38.5733155,-109.5498395,2015-01-03,2015,January,Saturday
212,Washington (DC),United States,District of Columbia,38.9071923,-77.0368707,2015-01-03,2015,January,Saturday
213,San Francisco (Calif),United States,California,37.7749295,-122.4194155,2015-01-03,2015,January,Saturday
219,Greece,Greece, ,39.074208,21.824312,2015-01-04,2015,January,Sunday
224,New England States (US),United States, ,43.9653889,-70.8226541,2015-01-04,2015,January,Sunday
225,South Carolina,United States,South Carolina,33.836081,-81.1637245,2015-01-04,2015,January,Sunday
243,Texas,United States,Texas,31.9685988,-99.9018131,2015-01-04,2015,January,Sunday
244,North Korea,North Korea, ,40.339852,127.510093,2015-01-04,2015,January,Sunday
247,China,China, ,35.86166,104.195397,2015-01-04,2015,January,Sunday
250,Nantucket Sound (Mass),United States,Massachusetts,41.664559,-70.28634,2015-01-04,2015,January,Sunday
251,Mississippi,United States,Mississippi,32.3546679,-89.3985283,2015-01-04,2015,January,Sunday
255,Massachusetts,United States,Massachusetts,42.4072107,-71.3824374,2015-01-04,2015,January,Sunday
260,Oklahoma,United States,Oklahoma,35.4675602,-97.5164276,2015-01-04,2015,January,Sunday
262,South Korea,South Korea, ,35.907757,127.766922,2015-01-04,2015,January,Sunday
268,Rhode Island,United States,Rhode Island,41.5800945,-71.4774291,2015-01-04,2015,January,Sunday
269,Hong Kong,Hong Kong, ,22.3193039,114.1693611,2015-01-04,2015,January,Sunday
271,Spain,Spain, ,40.46366700000001,-3.74922,2015-01-04,2015,January,Sunday
289,Vermont,United States,Vermont,44.5588028,-72.57784149999999,2015-01-05,2015,January,Monday
291,Detroit (Mich),United States,Michigan,42.331427,-83.0457538,2015-01-05,2015,January,Monday
293,London (England),United Kingdom,England,51.5073509,-0.1277583,2015-01-05,2015,January,Monday
296,Phoenix (Ariz),United States,Arizona,33.4483771,-112.0740373,2015-01-05,2015,January,Monday
301,Georgia,United States,Georgia,32.1656221,-82.9000751,2015-01-05,2015,January,Monday
304,Cleveland (Ohio),United States,Ohio,41.49932,-81.6943605,2015-01-05,2015,January,Monday
306,Liberia,Liberia, ,6.428055,-9.429499000000002,2015-01-05,2015,January,Monday
312,Ohio,United States,Ohio,40.4172871,-82.90712300000001,2015-01-05,2015,January,Monday
313,Kansas,United States,Kansas,39.011902,-98.4842465,2015-01-05,2015,January,Monday
314,Canada,Canada, ,56.130366,-106.346771,2015-01-05,2015,January,Monday
315,West Virginia,United States,West Virginia,38.5976262,-80.4549026,2015-01-05,2015,January,Monday
317,New York State,United States,New York,43.2994285,-74.21793260000001,2015-01-05,2015,January,Monday
319,Colorado Springs (Colo),United States,Colorado,38.8338816,-104.8213634,2015-01-05,2015,January,Monday
327,Bermuda,Bermuda, ,32.3078,-64.7505,2015-01-05,2015,January,Monday
344,Baltimore (Md),United States,Maryland,39.2903848,-76.6121893,2015-01-05,2015,January,Monday
354,Seattle (Wash),United States,Washington,47.6062095,-122.3320708,2015-01-05,2015,January,Monday
361,Tennessee,United States,Tennessee,35.5174913,-86.5804473,2015-01-05,2015,January,Monday
375,Hobbs (NM),United States,New Mexico,32.7026116,-103.1360403,2015-01-05,2015,January,Monday
378,Middle East, , ,29.2985278,42.5509603,2015-01-05,2015,January,Monday
380,Kenya,Kenya, ,-0.023559,37.906193,2015-01-05,2015,January,Monday
382,Hyattsville (Md),United States,Maryland,38.9559442,-76.9455301,2015-01-05,2015,January,Monday
384,Nashville (Tenn),United States,Tennessee,36.1626638,-86.7816016,2015-01-05,2015,January,Monday
397,Philadelphia (Pa),United States,Pennsylvania,39.9525839,-75.1652215,2015-01-05,2015,January,Monday
413,Silicon Valley (Calif),United States,California,37.387474,-122.0575434,2015-01-05,2015,January,Monday
418,Italy,Italy, ,41.87194,12.56738,2015-01-05,2015,January,Monday
434,AMSTERDAM (NETHERLANDS),Netherlands,North Holland,52.3675734,4.9041389,2015-01-05,2015,January,Monday
435,Dublin (Ireland),Ireland,County Dublin,53.3498053,-6.2603097,2015-01-05,2015,January,Monday
449,Charlottesville (Va),United States,Virginia,38.0293059,-78.47667810000002,2015-01-06,2015,January,Tuesday
460,Washington (State),United States,Washington,47.7510741,-120.7401385,2015-01-06,2015,January,Tuesday
466,Russia,Russia, ,61.52401,105.318756,2015-01-06,2015,January,Tuesday
468,Puerto Rico,Puerto Rico, ,18.220833,-66.590149,2015-01-06,2015,January,Tuesday
478,South Sudan,South Sudan, ,6.876991899999999,31.3069788,2015-01-06,2015,January,Tuesday
480,ALBUQUERQUE (NM),United States,New Mexico,35.0843859,-106.650422,2015-01-06,2015,January,Tuesday
510,Aurora (Colo),United States,Colorado,39.7294319,-104.8319195,2015-01-06,2015,January,Tuesday
515,Yemen,Yemen, ,15.552727,48.516388,2015-01-06,2015,January,Tuesday
524,ALABAMA,United States,Alabama,32.3182314,-86.902298,2015-01-06,2015,January,Tuesday
536,Brooklyn (NYC),United States,New York,40.6781784,-73.9441579,2015-01-06,2015,January,Tuesday
554,Paris (France),France,Île-de-France,48.856614,2.3522219,2015-01-06,2015,January,Tuesday
560,Switzerland,Switzerland, ,46.818188,8.227511999999999,2015-01-06,2015,January,Tuesday
578,New Jersey,United States,New Jersey,40.0583238,-74.4056612,2015-01-06,2015,January,Tuesday
581,Roswell (NM),United States,New Mexico,33.3942655,-104.5230242,2015-01-06,2015,January,Tuesday
585,Ector County (Tex),United States,Texas,31.8246483,-102.5298028,2015-01-06,2015,January,Tuesday
624,India,India, ,20.593684,78.96288,2015-01-07,2015,January,Wednesday
629,Germany,Germany, ,51.165691,10.451526,2015-01-07,2015,January,Wednesday
669,Malaysia,Malaysia, ,4.210484,101.975766,2015-01-07,2015,January,Wednesday
678,Iran,Iran, ,32.427908,53.688046,2015-01-07,2015,January,Wednesday
681,Durham (NC),United States,North Carolina,35.9940329,-78.898619,2015-01-07,2015,January,Wednesday
686,Luxembourg,Luxembourg, ,49.815273,6.129582999999999,2015-01-07,2015,January,Wednesday
698,Canary Islands,Spain,Canary Islands,28.2915637,-16.6291304,2015-01-07,2015,January,Wednesday
710,ARIZONA,United States,Arizona,34.0489281,-111.0937311,2015-01-07,2015,January,Wednesday
726,La Ciotat (France),France,Provence-Alpes-Côte d'Azur,43.17365299999999,5.605155,2015-01-07,2015,January,Wednesday
730,Cuba,Cuba, ,21.521757,-77.781167,2015-01-07,2015,January,Wednesday
743,Maine,United States,Maine,45.253783,-69.4454689,2015-01-08,2015,January,Thursday
745,West Hollywood (Calif),United States,California,34.0900091,-118.3617443,2015-01-08,2015,January,Thursday
756,Hawaii,United States,Hawaii,19.8967662,-155.5827818,2015-01-08,2015,January,Thursday
772,Delaware,United States,Delaware,38.9108325,-75.52766989999999,2015-01-08,2015,January,Thursday
789,Miami (Fla),United States,Florida,25.7616798,-80.1917902,2015-01-08,2015,January,Thursday
792,Boys Town (Neb),United States,Nebraska,41.2611099,-96.1319649,2015-01-08,2015,January,Thursday
803,Vail (Colo),United States,Colorado,39.6402638,-106.3741955,2015-01-08,2015,January,Thursday
806,Panama,Panama, ,8.537981,-80.782127,2015-01-08,2015,January,Thursday
807,Midland (Tex),United States,Texas,31.9973456,-102.0779146,2015-01-08,2015,January,Thursday
818,Columbia (SC),United States,South Carolina,34.0007104,-81.0348144,2015-01-08,2015,January,Thursday
823,Manhattan (NYC),United States,New York,40.7830603,-73.9712488,2015-01-08,2015,January,Thursday
830,Denmark,Denmark, ,56.26392,9.501785,2015-01-08,2015,January,Thursday
837,Davos (Switzerland),Switzerland,Grisons,46.8027453,9.835970099999999,2015-01-08,2015,January,Thursday
838,Sweden,Sweden, ,60.12816100000001,18.643501,2015-01-08,2015,January,Thursday
867,ARKANSAS,United States,Arkansas,35.20105,-91.8318334,2015-01-08,2015,January,Thursday
894,Montclair (NJ),United States,New Jersey,40.8259007,-74.2090053,2015-01-08,2015,January,Thursday
897,Montana,United States,Montana,46.8796822,-110.3625658,2015-01-08,2015,January,Thursday
900,Long Island (NY),United States,New York,40.789142,-73.13496099999999,2015-01-08,2015,January,Thursday
909,Owens Valley (Calif),United States,California,37.37354029999999,-118.3773316,2015-01-09,2015,January,Friday
914,Madeira (Portugal),Portugal,Madeira,32.76070740000001,-16.9594723,2015-01-09,2015,January,Friday
934,Israel,Israel, ,31.046051,34.851612,2015-01-09,2015,January,Friday
958,Moscow (Russia),Russia, ,55.755826,37.6172999,2015-01-09,2015,January,Friday
971,Orange County (Calif),United States,California,33.7174708,-117.8311428,2015-01-09,2015,January,Friday
980,AFRICA, , ,-8.783195,34.508523,2015-01-09,2015,January,Friday
990,Los Angeles (Calif),United States,California,34.0522342,-118.2436849,2015-01-09,2015,January,Friday
992,Boise (Idaho),United States,Idaho,43.6150186,-116.2023137,2015-01-09,2015,January,Friday
1036,Iowa,United States,Iowa,41.8780025,-93.097702,2015-01-09,2015,January,Friday
1037,Salt Lake City (Utah),United States,Utah,40.7607793,-111.8910474,2015-01-09,2015,January,Friday
1043,Nevada,United States,Nevada,38.8026097,-116.419389,2015-01-09,2015,January,Friday
1050,Saudi Arabia,Saudi Arabia, ,23.885942,45.079162,2015-01-09,2015,January,Friday
1083,Charleston (SC),United States,South Carolina,32.7764749,-79.93105120000001,2015-01-09,2015,January,Friday
1085,Fort Hood (Tex),United States,Texas,31.13633149999999,-97.7797049,2015-01-09,2015,January,Friday
1096,South Dakota,United States,South Dakota,43.9695148,-99.9018131,2015-01-10,2015,January,Saturday
1111,Belgium,Belgium, ,50.503887,4.469936,2015-01-10,2015,January,Saturday
1137,ALASKA,United States,Alaska,64.2008413,-149.4936733,2015-01-10,2015,January,Saturday
1142,New Mexico,United States,New Mexico,34.5199402,-105.8700901,2015-01-10,2015,January,Saturday
1143,Mojave Desert (Calif),United States,California,35.01099110000001,-115.4733551,2015-01-10,2015,January,Saturday
1158,Ireland, , ,53.1423672,-7.692053599999999,2015-01-10,2015,January,Saturday
1169,San Diego (Calif),United States,California,32.715738,-117.1610838,2015-01-11,2015,January,Sunday
1176,Utah,United States,Utah,39.3209801,-111.0937311,2015-01-11,2015,January,Sunday
1204,Ukraine,Ukraine, ,48.379433,31.1655799,2015-01-11,2015,January,Sunday
1211,Rock Hill (SC),United States,South Carolina,34.9248667,-81.02507840000001,2015-01-11,2015,January,Sunday
1215,ARCTIC NATIONAL WILDLIFE REFUGE,United States,Alaska,68.4313695,-143.6909925,2015-01-11,2015,January,Sunday
1216,Iraq,Iraq, ,33.223191,43.679291,2015-01-11,2015,January,Sunday
1219,Atlantic Ocean, , ,-14.5994134,-28.6731465,2015-01-11,2015,January,Sunday
1230,Nantucket (Mass),United States,Massachusetts,41.2834704,-70.099451,2015-01-12,2015,January,Monday
1231,"Red Hook (Brooklyn, NY)",United States,New York,40.6733676,-74.00831889999999,2015-01-12,2015,January,Monday
1265,Indiana,United States,Indiana,40.2671941,-86.1349019,2015-01-12,2015,January,Monday
1271,Singapore,Singapore, ,1.352083,103.819836,2015-01-12,2015,January,Monday
1331,Palo Alto (Calif),United States,California,37.4418834,-122.1430195,2015-01-12,2015,January,Monday
1332,Gulf of Mexico, , ,25.304304,-90.065918,2015-01-12,2015,January,Monday
1358,Hyannis (Mass),United States,Massachusetts,41.6524911,-70.2881124,2015-01-12,2015,January,Monday
1421,Poland,Poland, ,51.919438,19.145136,2015-01-12,2015,January,Monday
1428,Somerville (Mass),United States,Massachusetts,42.3875968,-71.0994968,2015-01-12,2015,January,Monday
1445,Chicago (Ill),United States,Illinois,41.8781136,-87.6297982,2015-01-12,2015,January,Monday
1454,Fort Worth (Tex),United States,Texas,32.7554883,-97.3307658,2015-01-13,2015,January,Tuesday
1456,San Geronimo (Calif),United States,California,38.0132562,-122.6638731,2015-01-13,2015,January,Tuesday
1478,Beijing (China),China,Beijing,39.90419989999999,116.4073963,2015-01-13,2015,January,Tuesday
1492,Zurich (Switzerland),Switzerland,Zurich,47.3768866,8.541694,2015-01-13,2015,January,Tuesday
1538,Greenland,Greenland, ,71.706936,-42.604303,2015-01-13,2015,January,Tuesday
1549,Wyoming,United States,Wyoming,43.0759678,-107.2902839,2015-01-13,2015,January,Tuesday
1577,Australia,Australia, ,-25.274398,133.775136,2015-01-13,2015,January,Tuesday
1580,North Sea, , ,56.511018,3.515625,2015-01-13,2015,January,Tuesday
1582,Brussels (Belgium),Belgium,Brussels,50.8503396,4.3517103,2015-01-13,2015,January,Tuesday
1602,Wilmington (Del),United States,Delaware,39.744655,-75.5483909,2015-01-13,2015,January,Tuesday
1611,Pasadena (Calif),United States,California,34.1477849,-118.1445155,2015-01-13,2015,January,Tuesday
1617,Syria,Syria, ,34.80207499999999,38.996815,2015-01-13,2015,January,Tuesday
1623,Lake Superior, , ,47.723087,-86.940716,2015-01-14,2015,January,Wednesday
1662,Cambodia,Cambodia, ,12.565679,104.990963,2015-01-14,2015,January,Wednesday
1668,Toronto (Ontario),Canada,Ontario,43.653226,-79.3831843,2015-01-14,2015,January,Wednesday
1731,Montgomery (Ala),United States,Alabama,32.3792233,-86.3077368,2015-01-14,2015,January,Wednesday
1753,Frankfurt (Germany),Germany,Hessen,50.1109221,8.6821267,2015-01-14,2015,January,Wednesday
1799,Brazil,Brazil, ,-14.235004,-51.92528,2015-01-14,2015,January,Wednesday
1809,Indianapolis (Ind),United States,Indiana,39.768403,-86.158068,2015-01-14,2015,January,Wednesday
1825,Maryland,United States,Maryland,39.0457549,-76.64127119999999,2015-01-14,2015,January,Wednesday
1828,Malibu (Calif),United States,California,34.0259216,-118.7797571,2015-01-14,2015,January,Wednesday
1847,Vietnam,Vietnam, ,14.058324,108.277199,2015-01-14,2015,January,Wednesday
1853,Jennings (Mo),United States,Missouri,38.7192175,-90.26039030000001,2015-01-14,2015,January,Wednesday
1857,ANCHORAGE (ALASKA),United States,Alaska,61.2180556,-149.9002778,2015-01-14,2015,January,Wednesday
1906,East Coast (US),United States, ,62.4113634,-149.0729714,2015-01-15,2015,January,Thursday
1909,Delhi (India),India,Delhi,28.7040592,77.10249019999999,2015-01-15,2015,January,Thursday
1936,St Louis (Mo),United States,Missouri,38.6270025,-90.19940419999999,2015-01-15,2015,January,Thursday
1952,"Chelsea (Manhattan, NY)",United States,New York,40.7465004,-74.00137370000002,2015-01-15,2015,January,Thursday
1973,Oaxaca (Mexico),Mexico,Oaxaca,17.0731842,-96.7265889,2015-01-15,2015,January,Thursday
1983,Missouri,United States,Missouri,37.9642529,-91.8318334,2015-01-15,2015,January,Thursday
1993,Chapel Hill (NC),United States,North Carolina,35.9131996,-79.0558445,2015-01-15,2015,January,Thursday
2000,Stephenville (Tex),United States,Texas,32.2206958,-98.2022633,2015-01-15,2015,January,Thursday
2007,North Carolina,United States,North Carolina,35.7595731,-79.01929969999999,2015-01-15,2015,January,Thursday
2008,Yarnell (Ariz),United States,Arizona,34.2216927,-112.7474007,2015-01-15,2015,January,Thursday
2021,Oregon,United States,Oregon,43.8041334,-120.5542012,2015-01-15,2015,January,Thursday
2034,Kansas City (Kan),United States,Kansas,39.11553139999999,-94.62678729999999,2015-01-16,2015,January,Friday
2069,Columbus (Ohio),United States,Ohio,39.9611755,-82.99879419999999,2015-01-16,2015,January,Friday
2091,Copenhagen (Denmark),Denmark, ,55.6760968,12.5683372,2015-01-16,2015,January,Friday
2109,Pasco (Wash),United States,Washington,46.2305049,-119.0922316,2015-01-16,2015,January,Friday
2133,Caribbean Area, , ,21.4691137,-78.6568942,2015-01-16,2015,January,Friday
2140,Beverly Hills (Calif),United States,California,34.0736204,-118.4003563,2015-01-16,2015,January,Friday
2181,San Joaquin-Sacramento River Delta (Calif),United States,California,38.0679749,-121.8427354,2015-01-16,2015,January,Friday
2184,Mexico,Mexico, ,23.634501,-102.552784,2015-01-16,2015,January,Friday
2204,North Dakota,United States,North Dakota,47.5514926,-101.0020119,2015-01-17,2015,January,Saturday
2223,Netherlands,Netherlands, ,52.132633,5.291265999999999,2015-01-17,2015,January,Saturday
2231,Cremona (Italy),Italy,Lombardy,45.133249,10.0226511,2015-01-17,2015,January,Saturday
2252,"Far East, South and Southeast Asia and Pacific Areas", , ,-2.2179704,115.66283,2015-01-17,2015,January,Saturday
2272,Sentosa Cove (Singapore),Singapore, ,1.2448186,103.8410583,2015-01-18,2015,January,Sunday
2327,Bangladesh,Bangladesh, ,23.684994,90.356331,2015-01-19,2015,January,Monday
2344,Pittsburgh (Pa),United States,Pennsylvania,40.44062479999999,-79.9958864,2015-01-19,2015,January,Monday
2365,Key West (Fla),United States,Florida,24.5550593,-81.7799871,2015-01-19,2015,January,Monday
2379,United Arab Emirates,United Arab Emirates, ,23.424076,53.847818,2015-01-19,2015,January,Monday
2390,Austria,Austria, ,47.516231,14.550072,2015-01-19,2015,January,Monday
2391,Bakken Shale Field (ND),United States,Montana,47.9200496,-104.8017491,2015-01-19,2015,January,Monday
2409,Northern Ireland,United Kingdom,Northern Ireland,54.7877149,-6.4923145,2015-01-19,2015,January,Monday
2496,Minneapolis (Minn),United States,Minnesota,44.977753,-93.2650108,2015-01-20,2015,January,Tuesday
2512,El Salvador,El Salvador, ,13.794185,-88.89653,2015-01-20,2015,January,Tuesday
2529,Nova Scotia (Canada),Canada,Nova Scotia,44.68198659999999,-63.744311,2015-01-20,2015,January,Tuesday
2563,AFGHANISTAN,Afghanistan, ,33.93911,67.709953,2015-01-20,2015,January,Tuesday
2572,Falkland Islands,Falkland Islands (Islas Malvinas), ,-51.796253,-59.523613,2015-01-20,2015,January,Tuesday
2586,Cincinnati (Ohio),United States,Ohio,39.1031182,-84.5120196,2015-01-20,2015,January,Tuesday
2590,Oxnard (Calif),United States,California,34.1975048,-119.1770516,2015-01-20,2015,January,Tuesday
2598,Sanford (Fla),United States,Florida,28.8028612,-81.269453,2015-01-20,2015,January,Tuesday
2647,Palm Springs (Calif),United States,California,33.8302961,-116.5452921,2015-01-20,2015,January,Tuesday
2676,South Africa,South Africa, ,-30.559482,22.937506,2015-01-21,2015,January,Wednesday
2696,Mountain View (Calif),United States,California,37.3860517,-122.0838511,2015-01-21,2015,January,Wednesday
2725,San Francisco Bay Area (Calif),United States,California,37.8271784,-122.2913078,2015-01-21,2015,January,Wednesday
2759,Tyrone (Mo),United States,Missouri,37.2003245,-91.8699049,2015-01-21,2015,January,Wednesday
2770,Chattanooga (Tenn),United States,Tennessee,35.0456297,-85.3096801,2015-01-21,2015,January,Wednesday
2830,Acushnet River (Mass),United States,Massachusetts,41.6604329,-70.9166944,2015-01-21,2015,January,Wednesday
2846,Barcelona (Spain),Spain,Catalonia,41.3850639,2.1734035,2015-01-21,2015,January,Wednesday
2866,Hermosa Beach (Calif),United States,California,33.8622366,-118.3995194,2015-01-21,2015,January,Wednesday
2867,Abu Dhabi (United Arab Emirates),United Arab Emirates,Abu Dhabi,24.453884,54.3773438,2015-01-21,2015,January,Wednesday
2904,"Wall Street (Manhattan, NY)",United States,New York,40.7060361,-74.0088256,2015-01-21,2015,January,Wednesday
2906,Dallas (Tex),United States,Texas,32.7766642,-96.79698789999999,2015-01-22,2015,January,Thursday
2908,Bergholz (Ohio),United States,Ohio,40.5195084,-80.88397549999999,2015-01-22,2015,January,Thursday
2944,North America, , ,54.5259614,-105.2551187,2015-01-22,2015,January,Thursday
2963,Kyushu (Japan),Japan, ,32.59,130.8,2015-01-22,2015,January,Thursday
2967,Lynchburg (Va),United States,Virginia,37.4137536,-79.14224639999999,2015-01-22,2015,January,Thursday
2969,Suez Canal,Egypt, ,30.5578479,32.3388628,2015-01-22,2015,January,Thursday
3052,Old Westbury (NY),United States,New York,40.7887113,-73.5995717,2015-01-22,2015,January,Thursday
3056,Pacific Ocean, , ,-8.783195,-124.508523,2015-01-22,2015,January,Thursday
3070,Venice (Calif),United States,California,33.9850469,-118.4694832,2015-01-22,2015,January,Thursday
3071,Colombia,Colombia, ,4.570868,-74.297333,2015-01-22,2015,January,Thursday
3079,Mississippi River,United States, ,38.9002728,-90.6538904,2015-01-22,2015,January,Thursday
3097,Egypt,Egypt, ,26.820553,30.802498,2015-01-22,2015,January,Thursday
3110,Ontario (Canada),Canada,Ontario,51.253775,-85.323214,2015-01-23,2015,January,Friday
3124,Richmond (Calif),United States,California,37.9357576,-122.3477486,2015-01-23,2015,January,Friday
3126,Selma (Ala),United States,Alabama,32.4073589,-87.02110069999999,2015-01-23,2015,January,Friday
3135,Madison (Wis),United States,Wisconsin,43.0730517,-89.4012302,2015-01-23,2015,January,Friday
3181,Boykin (Ala),United States,Alabama,32.0779234,-87.28138,2015-01-23,2015,January,Friday
3201,Sierra Leone,Sierra Leone, ,8.460555,-11.779889,2015-01-23,2015,January,Friday
3239,APPALACHIAN REGION, , ,36.9051526,-81.07675139999999,2015-01-23,2015,January,Friday
3245,Gulf Coast (US),United States, ,37.09024,-95.712891,2015-01-23,2015,January,Friday
3248,Edinburgh (Scotland),United Kingdom,Scotland,55.953252,-3.188267,2015-01-23,2015,January,Friday
3260,Greenwood (Miss),United States,Mississippi,33.5162315,-90.1795281,2015-01-23,2015,January,Friday
3264,Chamblee (Ga),United States,Georgia,33.8920468,-84.29881259999999,2015-01-23,2015,January,Friday
3287,Wilmington (NC),United States,North Carolina,34.2103894,-77.8868117,2015-01-23,2015,January,Friday
3305,Channel Islands (Calif),United States,California,33.4506004,-119.3791204,2015-01-23,2015,January,Friday
3313,Trenton (NJ),United States,New Jersey,40.2205824,-74.759717,2015-01-23,2015,January,Friday
3324,Wichita (Kan),United States,Kansas,37.68717609999999,-97.33005299999999,2015-01-24,2015,January,Saturday
3330,Queens (NYC),United States,New York,40.7282239,-73.7948516,2015-01-24,2015,January,Saturday
3376,Atacama Desert,Chile,Antofagasta,-23.8634189,-69.1328491,2015-01-24,2015,January,Saturday
3403,New Hampshire,United States,New Hampshire,43.1938516,-71.5723953,2015-01-25,2015,January,Sunday
3462,ARCTIC REGIONS, , ,76.2505778,-100.113952,2015-01-26,2015,January,Monday
3476,Cheyenne (Wyo),United States,Wyoming,41.1399814,-104.8202462,2015-01-26,2015,January,Monday
3548,Minot (ND),United States,North Dakota,48.2329668,-101.2922906,2015-01-26,2015,January,Monday
3551,ANDORRA,Andorra, ,42.506285,1.521801,2015-01-26,2015,January,Monday
3583,Missoula (Mont),United States,Montana,46.8721284,-113.9940314,2015-01-26,2015,January,Monday
3600,Sierra Nevada Region (US),United States,California,38.2692123,-119.574224,2015-01-26,2015,January,Monday
3613,Newport Beach (Calif),United States,California,33.6188829,-117.9298493,2015-01-26,2015,January,Monday
3614,Bronx (NYC),United States,New York,40.8447819,-73.8648268,2015-01-26,2015,January,Monday
3619,Dubai (United Arab Emirates),United Arab Emirates,Dubai,25.2048493,55.2707828,2015-01-26,2015,January,Monday
3639,Sydney (Australia),Australia,New South Wales,-33.8688197,151.2092955,2015-01-27,2015,January,Tuesday
3673,St Petersburg (Russia),Russia, ,59.9310584,30.3609096,2015-01-27,2015,January,Tuesday
3679,Cook County (Ill),United States,Illinois,41.7376587,-87.697554,2015-01-27,2015,January,Tuesday
3683,Monroe (Conn),United States,Connecticut,41.3325962,-73.2073358,2015-01-27,2015,January,Tuesday
3686,Napa (Calif),United States,California,38.2975381,-122.286865,2015-01-27,2015,January,Tuesday
3687,USSR (Former Soviet Union),United States,District of Columbia,38.888684,-77.004719,2015-01-27,2015,January,Tuesday
3689,Tokyo (Japan),Japan,Tokyo,35.6761919,139.6503106,2015-01-27,2015,January,Tuesday
3747,Nice (France),France,Provence-Alpes-Côte d'Azur,43.7101728,7.261953200000001,2015-01-27,2015,January,Tuesday
3759,Southern States (US),United States,North Carolina,36.267966,-79.6514078,2015-01-27,2015,January,Tuesday
3801,New Orleans (La),United States,Louisiana,29.95106579999999,-90.0715323,2015-01-27,2015,January,Tuesday
3822,Minnesota,United States,Minnesota,46.729553,-94.6858998,2015-01-27,2015,January,Tuesday
3841,Libya,Libya, ,26.3351,17.228331,2015-01-28,2015,January,Wednesday
3869,AMAZON RIVER BASIN,United States,Massachusetts,41.76201229999999,-71.0954009,2015-01-28,2015,January,Wednesday
3872,Santa Fe (NM),United States,New Mexico,35.6869752,-105.937799,2015-01-28,2015,January,Wednesday
3875,Great Lakes, , ,45.0522366,-82.4846115,2015-01-28,2015,January,Wednesday
3880,Chile,Chile, ,-35.675147,-71.542969,2015-01-28,2015,January,Wednesday
3893,Marysville (Calif),United States,California,39.1457253,-121.5913547,2015-01-28,2015,January,Wednesday
3910,Savannah (Ga),United States,Georgia,32.0808989,-81.091203,2015-01-28,2015,January,Wednesday
3934,Huntington Beach (Calif),United States,California,33.6594835,-117.9988026,2015-01-28,2015,January,Wednesday
3936,Lake Huron, , ,45.0521793,-82.48509399999999,2015-01-28,2015,January,Wednesday
3984,Oxford (Miss),United States,Mississippi,34.3668299,-89.51863499999999,2015-01-28,2015,January,Wednesday
3990,"Meatpacking District (Manhattan, NY)",United States,New York,40.7409865,-74.0076108,2015-01-29,2015,January,Thursday
3995,Providence (RI),United States,Rhode Island,41.8239891,-71.4128343,2015-01-29,2015,January,Thursday
4012,Scott County (Ind),United States,Indiana,38.7008005,-85.7256372,2015-01-29,2015,January,Thursday
4071,Gujarat State (India),India,Gujarat,22.258652,71.1923805,2015-01-29,2015,January,Thursday
4098,Panama City Beach (Fla),United States,Florida,30.1765914,-85.8054879,2015-01-29,2015,January,Thursday
4136,French Alps,Italy,Aosta,45.8326492,6.8527504,2015-01-29,2015,January,Thursday
4160,Austin (Ind),United States,Texas,32.8082988,-96.8008948,2015-01-29,2015,January,Thursday
4172,Phnom Penh (Cambodia),Cambodia,Phnom Penh,11.5563738,104.9282099,2015-01-29,2015,January,Thursday
4199,Western States (US),United States, ,37.09024,-95.712891,2015-01-29,2015,January,Thursday
4217,"High Line (Manhattan, NY)",United States,New York,40.7479925,-74.0047649,2015-01-30,2015,January,Friday
4250,"Flatiron District (Manhattan, NY)",United States,New York,40.740083,-73.9903489,2015-01-30,2015,January,Friday
4264,Fort Meade (Md),United States,Maryland,39.10426349999999,-76.73423989999999,2015-01-30,2015,January,Friday
4380,Longmont (Colo),United States,Colorado,40.1672068,-105.1019275,2015-01-31,2015,January,Saturday
4410,Louisville (Ky),United States,Kentucky,38.2526647,-85.7584557,2015-01-31,2015,January,Saturday
4426,Butte (Mont),United States,Montana,46.0038232,-112.5347775,2015-01-31,2015,January,Saturday
4452,White Sands Missile Range (NM),United States,New Mexico,32.943896,-106.4196598,2015-01-31,2015,January,Saturday
4453,Central Valley (Calif),United States,California,40.19987769999999,-122.2011075,2015-01-31,2015,January,Saturday
4468,Wake County (NC),United States,North Carolina,35.8031909,-78.5660852,2015-01-31,2015,January,Saturday
4491,Chernobyl (Ukraine),Ukraine,Kyiv Oblast,51.2763027,30.2218992,2015-02-01,2015,February,Sunday
4499,Fort Lauderdale (Fla),United States,Florida,26.1224386,-80.13731740000001,2015-02-01,2015,February,Sunday
4535,Southwestern States (US),United States, ,37.09024,-95.712891,2015-02-01,2015,February,Sunday
4543,Newark (NJ),United States,New Jersey,40.735657,-74.1723667,2015-02-02,2015,February,Monday
4547,North Charleston (SC),United States,South Carolina,32.8771106,-80.0130514,2015-02-02,2015,February,Monday
4553,"SoHo (Manhattan, NY)",United States,New York,40.723301,-74.0029883,2015-02-02,2015,February,Monday
4575,Slovakia,Slovakia, ,48.669026,19.699024,2015-02-02,2015,February,Monday
4586,Philippines,Philippines, ,12.879721,121.774017,2015-02-02,2015,February,Monday
4591,Chechnya (Russia),Russia,Chechnya,43.4023301,45.7187468,2015-02-02,2015,February,Monday
4614,Burgundy (France),France,Bourgogne-Franche-Comté,47.0525047,4.3837215,2015-02-02,2015,February,Monday
4655,Guangzhou (China),China,Guangdong Province,23.12911,113.264385,2015-02-02,2015,February,Monday
4670,Appomattox Court House National Historical Park (Va),United States,Virginia,37.3775201,-78.7960069,2015-02-02,2015,February,Monday
4672,San Bernardino (Calif),United States,California,34.1083449,-117.2897652,2015-02-02,2015,February,Monday
4725,San Bernardino County (Calif),United States,California,34.9592083,-116.419389,2015-02-03,2015,February,Tuesday
4735,Carlsbad (Calif),United States,California,33.1580933,-117.3505939,2015-02-03,2015,February,Tuesday
4790,Elephant Butte (NM),United States,New Mexico,33.1770471,-107.2252675,2015-02-03,2015,February,Tuesday
4793,Klamath (Calif),United States,California,41.5265092,-124.0384069,2015-02-03,2015,February,Tuesday
4806,New Haven (Conn),United States,Connecticut,41.308274,-72.9278835,2015-02-03,2015,February,Tuesday
4830,Tulsa (Okla),United States,Oklahoma,36.1539816,-95.99277500000001,2015-02-03,2015,February,Tuesday
4836,Maumee (Ohio),United States,Ohio,41.5628294,-83.65382439999999,2015-02-03,2015,February,Tuesday
4971,Rocky Mountains, , ,44.2642998,-109.7869527,2015-02-04,2015,February,Wednesday
4977,Lindstrom (Minn),United States,Minnesota,45.3894083,-92.8479921,2015-02-04,2015,February,Wednesday
5001,Nigeria,Nigeria, ,9.081999,8.675277,2015-02-04,2015,February,Wednesday
5079,Tuskegee (Ala),United States,Alabama,32.430237,-85.7077266,2015-02-05,2015,February,Thursday
5081,Raccoon River (Iowa),United States,Iowa,41.7246326,-94.04954320000002,2015-02-05,2015,February,Thursday
5114,Oklahoma City (Okla),United States,Oklahoma,35.4675602,-97.5164276,2015-02-05,2015,February,Thursday
5127,Eureka Springs (Ark),United States,Arkansas,36.4011825,-93.7379711,2015-02-05,2015,February,Thursday
5139,Keene (NH),United States,New Hampshire,42.933692,-72.2781409,2015-02-05,2015,February,Thursday
5154,Shetland Islands (Scotland),United Kingdom,Scotland,60.5296507,-1.2659409,2015-02-05,2015,February,Thursday
5160,Ivory Coast,Côte d'Ivoire, ,7.539988999999999,-5.547079999999999,2015-02-05,2015,February,Thursday
5186,Idaho,United States,Idaho,44.0682019,-114.7420408,2015-02-05,2015,February,Thursday
5221,Oak Ridge (Tenn),United States,Tennessee,36.0103561,-84.26964490000002,2015-02-05,2015,February,Thursday
5226,Milan (Italy),Italy,Lombardy,45.4642035,9.189982,2015-02-05,2015,February,Thursday
5229,Everglades National Park,United States,Florida,25.745929,-80.5549561,2015-02-05,2015,February,Thursday
5247,Berlin (Germany),Germany,Berlin,52.52000659999999,13.404954,2015-02-06,2015,February,Friday
5269,Bridgeport (Conn),United States,Connecticut,41.1792258,-73.1894384,2015-02-06,2015,February,Friday
5275,Indian Ocean, , ,-33.137551,81.826172,2015-02-06,2015,February,Friday
5299,Parma (Mo),United States,Missouri,36.613669,-89.8164743,2015-02-06,2015,February,Friday
5333,St Louis County (Mo),United States,Missouri,38.6103023,-90.4125181,2015-02-06,2015,February,Friday
5352,Riga (Latvia),Latvia, ,56.9496487,24.1051865,2015-02-06,2015,February,Friday
5394,Everglades (Fla),United States,Florida,25.745929,-80.5549561,2015-02-06,2015,February,Friday
5397,Mount Everest, , ,27.9881206,86.9249751,2015-02-06,2015,February,Friday
5405,Knoxville (Tenn),United States,Tennessee,35.9606384,-83.9207392,2015-02-06,2015,February,Friday
5456,Miami Beach (Fla),United States,Florida,25.790654,-80.1300455,2015-02-07,2015,February,Saturday
5485,Isle Royale National Park (Mich),United States,Michigan,47.9958654,-88.9092899,2015-02-07,2015,February,Saturday
5547,Winston-Salem (NC),United States,North Carolina,36.09985959999999,-80.244216,2015-02-08,2015,February,Sunday
5577,Western Europe, , ,46.2021848,1.2643875,2015-02-09,2015,February,Monday
5612,Carlstadt (NJ),United States,New Jersey,40.8403778,-74.0906974,2015-02-09,2015,February,Monday
5614,Beatrice (Neb),United States,Nebraska,40.2659269,-96.7466913,2015-02-09,2015,February,Monday
5695,Pine Ridge Indian Reservation (SD),United States,South Dakota,43.27309,-102.7445233,2015-02-09,2015,February,Monday
5735,Mississippi River-Gulf Outlet,United States,Louisiana,29.8679637,-89.6896627,2015-02-09,2015,February,Monday
5802,Garland (Tex),United States,Texas,32.912624,-96.63888329999999,2015-02-09,2015,February,Monday
5828,Waterloo (Belgium),Belgium,Wallonia,50.71469,4.3991,2015-02-10,2015,February,Tuesday
5831,Bangalore (India),India,Karnataka,12.9715987,77.5945627,2015-02-10,2015,February,Tuesday
5838,Marcellus Shale,United States,Pennsylvania,40.4478363,-80.15194079999999,2015-02-10,2015,February,Tuesday
5844,West Orange (NJ),United States,New Jersey,40.7985699,-74.23908279999999,2015-02-10,2015,February,Tuesday
5853,Nepal,Nepal, ,28.394857,84.12400799999999,2015-02-10,2015,February,Tuesday
5860,Rapid City (SD),United States,South Dakota,44.0805434,-103.2310149,2015-02-10,2015,February,Tuesday
5872,Bentonville (Ark),United States,Arkansas,36.3728538,-94.2088172,2015-02-10,2015,February,Tuesday
5915,Carlsbad (NM),United States,New Mexico,32.4206736,-104.2288375,2015-02-10,2015,February,Tuesday
5955,ARCTIC OCEAN, , ,65.2481624,-60.4620977,2015-02-10,2015,February,Tuesday
5989,Fredericksburg (Va),United States,Virginia,38.3031837,-77.4605399,2015-02-11,2015,February,Wednesday
6051,Azerbaijan,Azerbaijan, ,40.143105,47.576927,2015-02-11,2015,February,Wednesday
6127,Hattiesburg (Miss),United States,Mississippi,31.3271189,-89.29033919999999,2015-02-11,2015,February,Wednesday
6140,Guyana,Guyana, ,4.860416,-58.93018,2015-02-11,2015,February,Wednesday
6146,Haiti,Haiti, ,18.971187,-72.285215,2015-02-11,2015,February,Wednesday
6155,Finland,Finland, ,61.92410999999999,25.7481511,2015-02-11,2015,February,Wednesday
6164,Yosemite National Park (Calif),United States,California,37.8651011,-119.5383294,2015-02-11,2015,February,Wednesday
6166,Menomonee Falls (Wis),United States,Wisconsin,43.1788967,-88.1173132,2015-02-11,2015,February,Wednesday
6169,Burgess Shale (Canada),Canada,British Columbia,51.39684519999999,-116.4872104,2015-02-11,2015,February,Wednesday
6176,Chukchi Sea, , ,69.47131639999999,-171.6902767,2015-02-11,2015,February,Wednesday
6187,Western Cape (South Africa),South Africa,Western Cape,-33.2277918,21.8568586,2015-02-11,2015,February,Wednesday
6208,Mystic (Conn),United States,Connecticut,41.3542656,-71.96646199999999,2015-02-12,2015,February,Thursday
6289,Northeastern States (US),United States, ,43.2994285,-74.21793260000001,2015-02-12,2015,February,Thursday
6295,Piermont (NY),United States,New York,41.0420414,-73.91819199999999,2015-02-12,2015,February,Thursday
6296,British Columbia (Canada),Canada,British Columbia,53.7266683,-127.6476205,2015-02-12,2015,February,Thursday
6373,"Spuyten Duyvil (Bronx, NY)",United States,New York,40.88116369999999,-73.9154069,2015-02-12,2015,February,Thursday
6374,Chautauqua (NY),United States,New York,42.209774,-79.4668445,2015-02-12,2015,February,Thursday
6377,Uruguay,Uruguay, ,-32.522779,-55.765835,2015-02-12,2015,February,Thursday
6394,Gibraltar,Gibraltar, ,36.140751,-5.353585,2015-02-12,2015,February,Thursday
6443,Asheville (NC),United States,North Carolina,35.5950581,-82.5514869,2015-02-13,2015,February,Friday
6450,Spring Branch (Tex),United States,Texas,29.8405513,-98.4104996,2015-02-13,2015,February,Friday
6487,Waco (Tex),United States,Texas,31.549333,-97.1466695,2015-02-13,2015,February,Friday
6497,Galesburg (Ill),United States,Illinois,40.94781580000001,-90.3712395,2015-02-13,2015,February,Friday
6506,Camden (NJ),United States,New Jersey,39.9259463,-75.1196199,2015-02-13,2015,February,Friday
6528,Tibet,China,Tibet,30.1533605,88.7878678,2015-02-13,2015,February,Friday
6533,Scandinavia, , ,62.27864750000001,12.3401709,2015-02-13,2015,February,Friday
6618,Connecticut,United States,Connecticut,41.6032207,-73.087749,2015-02-14,2015,February,Saturday
6634,"Trout Run (Frederick County, Md)",United States,Pennsylvania,40.1281766,-77.6784157,2015-02-14,2015,February,Saturday
6671,Benghazi (Libya),Libya,Benghazi district,32.1194242,20.0867909,2015-02-15,2015,February,Sunday
6709,Sacramento (Calif),United States,California,38.5815719,-121.4943996,2015-02-15,2015,February,Sunday
6722,Sintra (Portugal),Portugal,Lisbon,38.8028687,-9.3816589,2015-02-16,2015,February,Monday
6828,Wood Lake (Neb),United States,Nebraska,42.6386118,-100.2381824,2015-02-16,2015,February,Monday
6833,Tangelo Park (Fla),United States,Florida,28.4558386,-81.44590470000001,2015-02-16,2015,February,Monday
6834,Vatican City,Vatican City, ,41.902916,12.453389,2015-02-16,2015,February,Monday
6839,Yangtze River (China),China, ,30.2724075,112.2883294,2015-02-16,2015,February,Monday
6881,Brownsville (Tex),United States,Texas,25.9017472,-97.4974838,2015-02-17,2015,February,Tuesday
6884,Youngstown (Ohio),United States,Ohio,41.0997803,-80.6495194,2015-02-17,2015,February,Tuesday
6912,Dresden (Germany),Germany,Saxony,51.0504088,13.7372621,2015-02-17,2015,February,Tuesday
6914,Wimberley (Tex),United States,Texas,29.9974362,-98.0986204,2015-02-17,2015,February,Tuesday
6983,Denver (Colo),United States,Colorado,39.7392358,-104.990251,2015-02-18,2015,February,Wednesday
6994,Poconos (Pa),United States,Pennsylvania,41.0700078,-75.4344727,2015-02-18,2015,February,Wednesday
7038,Saratoga (NY),United States,New York,43.0831301,-73.7845651,2015-02-18,2015,February,Wednesday
7054,Central Asia, , ,45.4506875,68.8319005,2015-02-18,2015,February,Wednesday
7060,Hollywood (Calif),United States,California,34.0928092,-118.3286614,2015-02-18,2015,February,Wednesday
7077,Cumberland River,United States, ,36.7009342,-85.5735091,2015-02-18,2015,February,Wednesday
7078,Hirado (Japan),Japan,Nagasaki,33.3680242,129.5536778,2015-02-18,2015,February,Wednesday
7080,Broward County (Fla),United States,Florida,26.190096,-80.365865,2015-02-18,2015,February,Wednesday
7169,Himalayas, , ,28.5983159,83.9310623,2015-02-19,2015,February,Thursday
7173,"Roosevelt Island (Manhattan, NY)",United States,New York,40.76050310000001,-73.9509934,2015-02-19,2015,February,Thursday
7180,Yakima River Valley (Wash),United States,Washington,46.2529128,-119.230849,2015-02-19,2015,February,Thursday
7185,Springfield (Mo),United States,Missouri,37.2089572,-93.29229889999999,2015-02-19,2015,February,Thursday
7215,Orlando (Fla),United States,Florida,28.5383355,-81.3792365,2015-02-19,2015,February,Thursday
7242,Scotland,United Kingdom,Scotland,56.49067119999999,-4.2026458,2015-02-19,2015,February,Thursday
7247,"Harlem (Manhattan, NY)",United States,New York,40.8115504,-73.9464769,2015-02-19,2015,February,Thursday
7267,Virgin Islands (Great Britain),British Virgin Islands, ,18.420695,-64.639968,2015-02-19,2015,February,Thursday
7271,Tallahassee (Fla),United States,Florida,30.4382559,-84.28073289999999,2015-02-19,2015,February,Thursday
7296,Marshall Islands,Marshall Islands, ,7.131474,171.184478,2015-02-20,2015,February,Friday
7317,Sao Paulo (Brazil),Brazil,State of São Paulo,-23.5505199,-46.63330939999999,2015-02-20,2015,February,Friday
7320,Senatobia (Miss),United States,Mississippi,34.6176032,-89.96870109999999,2015-02-20,2015,February,Friday
7326,Seoul (South Korea),South Korea,Seoul,37.566535,126.9779692,2015-02-20,2015,February,Friday
7400,Yorkville (Ill),United States,Illinois,41.6411409,-88.44729480000001,2015-02-20,2015,February,Friday
7436,Port Townsend (Wash),United States,Washington,48.11703869999999,-122.7604471,2015-02-20,2015,February,Friday
7509,"Upper East Side (Manhattan, NY)",United States,New York,40.7735649,-73.9565551,2015-02-21,2015,February,Saturday
7535,Jerusalem (Israel),Israel,Jerusalem District,31.768319,35.21371,2015-02-21,2015,February,Saturday
7556,Peshawar (Pakistan),Pakistan,Khyber Pakhtunkhwa,34.0151366,71.5249154,2015-02-22,2015,February,Sunday
7582,Jersey City (NJ),United States,New Jersey,40.7177545,-74.0431435,2015-02-22,2015,February,Sunday
7617,McKinney (Tex),United States,Texas,33.1983388,-96.6389342,2015-02-23,2015,February,Monday
7644,Wilsonville (Ore),United States,Oregon,45.3029903,-122.7726501,2015-02-23,2015,February,Monday
7674,Austin (Tex),United States,Texas,30.267153,-97.7430608,2015-02-23,2015,February,Monday
7690,England,United Kingdom,England,52.3555177,-1.1743197,2015-02-23,2015,February,Monday
7713,"Roosevelt, Franklin D, Four Freedoms Park (Manhattan, NY)",United States,New York,40.7506105,-73.96052399999999,2015-02-23,2015,February,Monday
7736,Dayton (Ohio),United States,Ohio,39.7589478,-84.1916069,2015-02-23,2015,February,Monday
7738,AMES (IOWA),United States,Iowa,42.0307812,-93.63191309999999,2015-02-23,2015,February,Monday
7745,Uganda,Uganda, ,1.373333,32.290275,2015-02-23,2015,February,Monday
7784,Park City (Utah),United States,Utah,40.6460622,-111.4979729,2015-02-24,2015,February,Tuesday
7787,"Central Park (Manhattan, NY)",United States,New York,40.7812199,-73.9665138,2015-02-24,2015,February,Tuesday
7793,"Bryant Park (Manhattan, NY)",United States,New York,40.7535965,-73.9832326,2015-02-24,2015,February,Tuesday
7798,Spokane (Wash),United States,Washington,47.6587802,-117.4260465,2015-02-24,2015,February,Tuesday
7888,Dilley (Tex),United States,Texas,28.6674802,-99.1705887,2015-02-24,2015,February,Tuesday
7915,Athens (Greece),Greece, ,37.9838096,23.7275388,2015-02-25,2015,February,Wednesday
7925,Maricopa County (Ariz),United States,Arizona,33.2917968,-112.4291464,2015-02-25,2015,February,Wednesday
7927,Kansas City (Mo),United States,Missouri,39.0997265,-94.5785667,2015-02-25,2015,February,Wednesday
7961,Tuscany (Italy),Italy,Tuscany,43.7710513,11.2486208,2015-02-25,2015,February,Wednesday
8020,Burbank (Calif),United States,California,34.1808392,-118.3089661,2015-02-25,2015,February,Wednesday
8036,Bozeman (Mont),United States,Montana,45.6769979,-111.0429339,2015-02-25,2015,February,Wednesday
8125,Sahara Desert, , ,23.4162027,25.66283,2015-02-26,2015,February,Thursday
8130,Blytheville (Ark),United States,Arkansas,35.9272953,-89.9189753,2015-02-26,2015,February,Thursday
8150,Shanghai (China),China,Shanghai,31.230416,121.473701,2015-02-26,2015,February,Thursday
8235,Memphis (Tenn),United States,Tennessee,35.1495343,-90.0489801,2015-02-26,2015,February,Thursday
8284,Coachella Valley (Calif),United States,California,33.7666873,-116.3591772,2015-02-27,2015,February,Friday
8289,Cannes (France),France,Provence-Alpes-Côte d'Azur,43.552847,7.017369,2015-02-27,2015,February,Friday
8355,Elk River (W Va),United States,West Virginia,38.4942331,-81.2067417,2015-02-27,2015,February,Friday
8358,South China Sea, , ,15.488092,114.404754,2015-02-27,2015,February,Friday
8569,Provincetown (Mass),United States,Massachusetts,42.0584412,-70.1786425,2015-03-02,2015,March,Monday
8573,ALEXANDRIA (VA),United States,Virginia,38.8048355,-77.0469214,2015-03-02,2015,March,Monday
8583,South Burlington (Vt),United States,Vermont,44.4669941,-73.1709604,2015-03-02,2015,March,Monday
8665,Lancashire (England),United Kingdom,England,53.7632254,-2.7044052,2015-03-02,2015,March,Monday
8676,Lithuania,Lithuania, ,55.169438,23.881275,2015-03-02,2015,March,Monday
8691,Cyprus,Cyprus, ,35.126413,33.429859,2015-03-02,2015,March,Monday
8729,George Washington Bridge,United States,New Jersey,40.8516964,-73.9527159,2015-03-02,2015,March,Monday
8785,Bar Harbor (Me),United States,Maine,44.3876119,-68.2039123,2015-03-03,2015,March,Tuesday
8798,Shenzhen (China),China,Guangdong Province,22.543096,114.057865,2015-03-03,2015,March,Tuesday
8807,Greeleyville (SC),United States,South Carolina,33.5809988,-79.9889654,2015-03-03,2015,March,Tuesday
8810,Havana (Cuba),Cuba,Havana,23.1135925,-82.3665956,2015-03-03,2015,March,Tuesday
8826,Portland (Me),United States,Maine,43.6590993,-70.2568189,2015-03-03,2015,March,Tuesday
8836,"Times Square and 42nd Street (Manhattan, NY)",United States,New York,40.7558611,-73.987061,2015-03-03,2015,March,Tuesday
8935,Vancouver (British Columbia),Canada,British Columbia,49.2827291,-123.1207375,2015-03-04,2015,March,Wednesday
8952,Burlington (Vt),United States,Vermont,44.4758825,-73.21207199999999,2015-03-04,2015,March,Wednesday
8977,Cupertino (Calif),United States,California,37.3229978,-122.0321823,2015-03-04,2015,March,Wednesday
9052,Richmond (Va),United States,Virginia,37.5407246,-77.4360481,2015-03-05,2015,March,Thursday
9127,Iowa City (Iowa),United States,Iowa,41.6611277,-91.5301683,2015-03-05,2015,March,Thursday
9217,Isle of Man,Isle of Man, ,54.236107,-4.548056,2015-03-06,2015,March,Friday
9239,Palm Beach (Fla),United States,Florida,26.7056206,-80.0364297,2015-03-06,2015,March,Friday
9263,Scituate (Mass),United States,Massachusetts,42.195929,-70.7258633,2015-03-06,2015,March,Friday
9275,Kennebunkport (Me),United States,Maine,43.3617327,-70.4767274,2015-03-06,2015,March,Friday
9284,"Waco Mammoth National Monument (Waco, Tex)",United States,Texas,31.6067336,-97.1758392,2015-03-06,2015,March,Friday
9336,Tacoma (Wash),United States,Washington,47.2528768,-122.4442906,2015-03-07,2015,March,Saturday
9338,Martha's Vineyard (Mass),United States,Massachusetts,41.3804981,-70.645473,2015-03-07,2015,March,Saturday
9388,Birmingham (Ala),United States,Alabama,33.5185892,-86.8103567,2015-03-08,2015,March,Sunday
9435,Jardines de la Reina (Cuba),Cuba,Camaguey,20.8333333,-78.9166667,2015-03-08,2015,March,Sunday
9440,Aspen (Colo),United States,Colorado,39.1910983,-106.8175387,2015-03-08,2015,March,Sunday
9452,Van Meter (Iowa),United States,Iowa,41.53332229999999,-93.9543949,2015-03-08,2015,March,Sunday
9453,Newport News (Va),United States,Virginia,37.0870821,-76.4730122,2015-03-08,2015,March,Sunday
9458,San Juan (Puerto Rico),Puerto Rico,San Juan,18.4655394,-66.1057355,2015-03-08,2015,March,Sunday
9499,Orland (Calif),United States,California,39.7473803,-122.1963748,2015-03-09,2015,March,Monday
9510,Christoval (Tex),United States,Texas,31.1935006,-100.4987052,2015-03-09,2015,March,Monday
9531,Qatar,Qatar, ,25.354826,51.183884,2015-03-09,2015,March,Monday
9566,Laramie (Wyo),United States,Wyoming,41.3113669,-105.5911007,2015-03-09,2015,March,Monday
9568,Gardena (Calif),United States,California,33.8883487,-118.3089624,2015-03-09,2015,March,Monday
9583,El Reno (Okla),United States,Oklahoma,35.5322741,-97.9550493,2015-03-09,2015,March,Monday
9585,Morocco,Morocco, ,31.791702,-7.092619999999999,2015-03-09,2015,March,Monday
9596,Waller County (Tex),United States,Texas,29.9751629,-96.02557379999999,2015-03-09,2015,March,Monday
9633,Des Moines (Iowa),United States,Iowa,41.5868353,-93.6249593,2015-03-10,2015,March,Tuesday
9640,Hixson (Tenn),United States,Tennessee,35.137265,-85.2368219,2015-03-10,2015,March,Tuesday
9694,Harris County (Tex),United States,Texas,29.7751825,-95.3102505,2015-03-10,2015,March,Tuesday
9765,Latin America, , ,-4.4420385,-61.32685350000001,2015-03-11,2015,March,Wednesday
9796,Macedonia,North Macedonia, ,41.608635,21.745275,2015-03-11,2015,March,Wednesday
9806,Buffalo (NY),United States,New York,42.88644679999999,-78.8783689,2015-03-11,2015,March,Wednesday
9834,Mumbai (India),India,Maharashtra,19.0759837,72.8776559,2015-03-11,2015,March,Wednesday
9858,Berkeley (Calif),United States,California,37.8715226,-122.273042,2015-03-11,2015,March,Wednesday
9882,Bahama Islands,The Bahamas, ,26.3555029,-77.1485163,2015-03-11,2015,March,Wednesday
9960,Cape Town (South Africa),South Africa,Western Cape,-33.9248685,18.4240553,2015-03-12,2015,March,Thursday
9991,Munich (Germany),Germany,Bavaria,48.1351253,11.5819805,2015-03-12,2015,March,Thursday
9996,Laredo (Tex),United States,Texas,27.5035613,-99.5075519,2015-03-12,2015,March,Thursday
10006,Hamptons (NY),United States,New York,40.924616,-72.35479149999999,2015-03-12,2015,March,Thursday
10019,Block Island (RI),United States,Rhode Island,41.172137,-71.5576045,2015-03-12,2015,March,Thursday
10024,Dugway Proving Ground (Utah),United States,Utah,40.2210533,-112.7444097,2015-03-12,2015,March,Thursday
10029,Lafayette (La),United States,Louisiana,30.2240897,-92.0198427,2015-03-12,2015,March,Thursday
10036,Ecuador,Ecuador, ,-1.831239,-78.18340599999999,2015-03-12,2015,March,Thursday
10046,Yellowstone National Park,United States, ,44.427963,-110.588455,2015-03-12,2015,March,Thursday
10050,"Flatbush (Brooklyn, NY)",United States,New York,40.6414876,-73.9593998,2015-03-13,2015,March,Friday
10091,Central America, , ,12.7690126,-85.60236429999999,2015-03-13,2015,March,Friday
10165,Ethiopia,Ethiopia, ,9.145000000000001,40.489673,2015-03-13,2015,March,Friday
10182,Hispaniola, , ,19.0018663,-71.5723953,2015-03-13,2015,March,Friday
10201,Milwaukee (Wis),United States,Wisconsin,43.0389025,-87.9064736,2015-03-13,2015,March,Friday
10235,Jamestown (Va),United States,Virginia,37.2116383,-76.7752102,2015-03-13,2015,March,Friday
10243,Sarasota (Fla),United States,Florida,27.3364347,-82.53065269999999,2015-03-14,2015,March,Saturday
10245,AMHERST (MASS),United States,Massachusetts,42.3732216,-72.5198537,2015-03-14,2015,March,Saturday
10312,Hwange National Park (Zimbabwe),Zimbabwe,Matabeleland North Province,-19.1240539,26.5925913,2015-03-15,2015,March,Sunday
10317,Santa Cruz (Calif),United States,California,36.9741171,-122.0307963,2015-03-15,2015,March,Sunday
10332,Riverton (Wyo),United States,Wyoming,43.024673,-108.3806054,2015-03-15,2015,March,Sunday
10333,Santander (Spain),Spain,Cantabria,43.46230569999999,-3.8099803,2015-03-15,2015,March,Sunday
10334,Hague (Netherlands),Netherlands,South Holland,52.0704978,4.3006999,2015-03-15,2015,March,Sunday
10368,Southeastern States (US),United States, ,37.09024,-95.712891,2015-03-16,2015,March,Monday
10378,ABU GHRAIB (IRAQ),Iraq,Al Anbar Governorate,33.297611,44.0817686,2015-03-16,2015,March,Monday
10384,"Hudson Yards (Manhattan, NY)",United States,New York,40.7537738,-74.00168819999999,2015-03-16,2015,March,Monday
10433,Sudan,Sudan, ,12.862807,30.217636,2015-03-16,2015,March,Monday
10483,Pacific Palisades (Calif),United States,California,34.03563310000001,-118.5155901,2015-03-16,2015,March,Monday
10517,Staten Island (NYC),United States,New York,40.5795317,-74.1502007,2015-03-16,2015,March,Monday
10537,Pocomoke City (Md),United States,Maryland,38.0756773,-75.56798049999999,2015-03-16,2015,March,Monday
10548,St Lawrence Island (Alaska),United States,Alaska,63.326105,-170.018382,2015-03-17,2015,March,Tuesday
10602,Charlotte (NC),United States,North Carolina,35.2270869,-80.8431267,2015-03-17,2015,March,Tuesday
10668,Covington (Ky),United States,Kentucky,39.0836712,-84.5085536,2015-03-17,2015,March,Tuesday
10702,South America, , ,-8.783195,-55.491477,2015-03-18,2015,March,Wednesday
10735,Faribault (Minn),United States,Minnesota,44.2949636,-93.268827,2015-03-18,2015,March,Wednesday
10741,Nicodemus (Kan),United States,Kansas,39.394452,-99.61705549999999,2015-03-18,2015,March,Wednesday
10774,"Phoenix Mountains Preserve (Phoenix, Ariz)",United States,Arizona,33.5639307,-112.0273704,2015-03-18,2015,March,Wednesday
10804,Seneca (SC),United States,South Carolina,34.6856555,-82.9532036,2015-03-18,2015,March,Wednesday
10815,San Joaquin Valley (Calif),United States,California,37.9832553,-121.8677352,2015-03-18,2015,March,Wednesday
10830,Animas River (Colo-NM),United States, ,37.3017517,-107.8679552,2015-03-18,2015,March,Wednesday
10858,ARLINGTON (TEX),United States,Texas,32.735687,-97.10806559999999,2015-03-18,2015,March,Wednesday
10922,Albemarle Sound,United States,North Carolina,36.0786612,-75.94632399999999,2015-03-19,2015,March,Thursday
10945,Pacific Northwestern States (US),United States, ,37.09024,-95.712891,2015-03-19,2015,March,Thursday
10985,Carlton (Wis),United States,Wisconsin,44.3552348,-87.5988876,2015-03-19,2015,March,Thursday
11053,Yonkers (NY),United States,New York,40.9312099,-73.89874689999999,2015-03-19,2015,March,Thursday
11055,Bayreuth (Germany),Germany,Bavaria,49.9456399,11.5713346,2015-03-20,2015,March,Friday
11056,Buenos Aires (Argentina),Argentina,Buenos Aires,-34.6036844,-58.3815591,2015-03-20,2015,March,Friday
11104,Pebble Beach (Calif),United States,California,36.5725286,-121.9485937,2015-03-20,2015,March,Friday
11154,Boston Harbor (Mass),United States,Massachusetts,42.3387933,-70.9745339,2015-03-20,2015,March,Friday
11158,Karnes City (Tex),United States,Texas,28.8849772,-97.9008355,2015-03-20,2015,March,Friday
11161,Starkville (Miss),United States,Mississippi,33.4503998,-88.81838719999999,2015-03-20,2015,March,Friday
11176,Madrid (Spain),Spain,Community of Madrid,40.4167754,-3.7037902,2015-03-21,2015,March,Saturday
11259,Bergen (Norway),Norway,Vestland,60.39126279999999,5.3220544,2015-03-22,2015,March,Sunday
11269,Bangkok (Thailand),Thailand,Bangkok,13.7563309,100.5017651,2015-03-22,2015,March,Sunday
11313,Fort Benning (Ga),United States,Georgia,32.3530561,-84.9552211,2015-03-23,2015,March,Monday
11356,Concord (NH),United States,New Hampshire,43.2081366,-71.5375718,2015-03-23,2015,March,Monday
11403,Westchester County (NY),United States,New York,41.1220194,-73.7948516,2015-03-23,2015,March,Monday
11473,Tajikistan,Tajikistan, ,38.861034,71.276093,2015-03-24,2015,March,Tuesday
11478,Kazakhstan,Kazakhstan, ,48.019573,66.923684,2015-03-24,2015,March,Tuesday
11511,Mobile (Ala),United States,Alabama,30.6953657,-88.0398912,2015-03-24,2015,March,Tuesday
11512,Carson City (Nev),United States,Nevada,39.1637984,-119.7674034,2015-03-24,2015,March,Tuesday
11544,Greenville (SC),United States,South Carolina,34.85261759999999,-82.3940104,2015-03-24,2015,March,Tuesday
11592,Long Branch (NJ),United States,New Jersey,40.30427780000001,-73.9923596,2015-03-25,2015,March,Wednesday
11607,Heard Island and McDonald Islands,Heard Island and McDonald Islands, ,-53.08181,73.50415799999999,2015-03-25,2015,March,Wednesday
11634,Mauna Kea Volcano (Hawaii),United States,Hawaii,19.8206105,-155.4680936,2015-03-25,2015,March,Wednesday
11641,Mount Tambora (Indonesia),Indonesia,West Nusa Tenggara,-8.2479246,117.991101,2015-03-25,2015,March,Wednesday
11685,New Brunswick (NJ),United States,New Jersey,40.4862157,-74.4518188,2015-03-26,2015,March,Thursday
11715,Roanoke (Va),United States,Virginia,37.2709704,-79.9414266,2015-03-26,2015,March,Thursday
11761,Prague (Czech Republic),Czechia,Prague,50.0755381,14.4378005,2015-03-26,2015,March,Thursday
11765,Rowan County (Ky),United States,Kentucky,38.177068,-83.46435509999999,2015-03-26,2015,March,Thursday
11885,Baxter State Park (Me),United States,Maine,46.0255506,-68.9501989,2015-03-27,2015,March,Friday
11936,Jackson Hole (Wyo),United States,Wyoming,43.4799291,-110.7624282,2015-03-27,2015,March,Friday
11952,Black Rock Desert (Nev),United States,Nevada,40.910733,-119.0560102,2015-03-27,2015,March,Friday
11976,Overland Park (Kan),United States,Kansas,38.9822282,-94.6707917,2015-03-28,2015,March,Saturday
11994,Denali National Park (Alaska),United States,Alaska,63.1148002,-151.1926057,2015-03-28,2015,March,Saturday
11998,San Antonio (Tex),United States,Texas,29.4241219,-98.49362819999999,2015-03-28,2015,March,Saturday
12028,Hillsboro (Mo),United States,Missouri,38.2273189,-90.56450369999999,2015-03-29,2015,March,Sunday
12029,Ithaca (NY),United States,New York,42.4439614,-76.5018807,2015-03-29,2015,March,Sunday
12048,Mount Denali (Alaska),United States,Alaska,63.06916889999999,-151.0069842,2015-03-29,2015,March,Sunday
12087,Marin County (Calif),United States,California,38.083403,-122.7633036,2015-03-30,2015,March,Monday
12124,Fox Lake (Ill),United States,Illinois,42.3966874,-88.1836965,2015-03-30,2015,March,Monday
12127,Basel (Switzerland),Switzerland,Basel City,47.5595986,7.5885761,2015-03-30,2015,March,Monday
12130,Springfield (Mass),United States,Massachusetts,42.1014831,-72.589811,2015-03-30,2015,March,Monday
12136,Stockholm (Sweden),Sweden,Stockholm County,59.32932349999999,18.0685808,2015-03-30,2015,March,Monday
12170,Santa Clara County (Calif),United States,California,37.3336581,-121.8907041,2015-03-30,2015,March,Monday
12175,Estes Park (Colo),United States,Colorado,40.3772059,-105.5216651,2015-03-30,2015,March,Monday
12189,Attwater Prairie Chicken National Wildlife Refuge (Tex),United States,Texas,29.6689106,-96.26681219999999,2015-03-30,2015,March,Monday
12198,Bowdon (Ga),United States,Georgia,33.5378885,-85.2532818,2015-03-30,2015,March,Monday
12208,Peoria (Ill),United States,Illinois,40.6936488,-89.5889864,2015-03-30,2015,March,Monday
12231,St Paul (Minn),United States,Minnesota,44.9537029,-93.0899578,2015-03-30,2015,March,Monday
12309,ALBERTA (CANADA),Canada,Alberta,53.9332706,-116.5765035,2015-03-31,2015,March,Tuesday
12311,"Williamsburg (Brooklyn, NY)",United States,New York,40.7081156,-73.9570696,2015-03-31,2015,March,Tuesday
12351,Sinjar (Iraq),Iraq,Nineveh Governorate,36.3142158,41.8624425,2015-03-31,2015,March,Tuesday
12419,Shanksville (PA),United States,Pennsylvania,40.0178571,-78.9072458,2015-03-31,2015,March,Tuesday
12495,Somalia,Somalia, ,5.152149,46.199616,2015-04-01,2015,April,Wednesday
12526,Inglewood (Calif),United States,California,33.9616801,-118.3531311,2015-04-01,2015,April,Wednesday
12544,Venezuela,Venezuela, ,6.42375,-66.58973,2015-04-01,2015,April,Wednesday
12562,Fairfax County (Va),United States,Virginia,38.9085472,-77.2405153,2015-04-01,2015,April,Wednesday
12600,Reno (Nev),United States,Nevada,39.5296329,-119.8138027,2015-04-01,2015,April,Wednesday
12620,Marble Falls (Tex),United States,Texas,30.5782297,-98.2729184,2015-04-01,2015,April,Wednesday
12703,Papua New Guinea,Papua New Guinea, ,-6.314992999999999,143.95555,2015-04-02,2015,April,Thursday
12713,Sonoma County (Calif),United States,California,38.5779555,-122.9888319,2015-04-02,2015,April,Thursday
12719,"Congo, Democratic Republic of (Congo-Kinshasa)",Democratic Republic of the Congo,Kinshasa,-4.4419311,15.2662931,2015-04-02,2015,April,Thursday
12726,Pearl Harbor (Hawaii),United States,Hawaii,21.3511958,-157.9801523,2015-04-02,2015,April,Thursday
12749,Middletown (Calif),United States,California,38.7524045,-122.6149853,2015-04-02,2015,April,Thursday
12789,Portland (Ore),United States,Oregon,45.5051064,-122.6750261,2015-04-02,2015,April,Thursday
12797,Grand Canyon (Ariz),United States,Arizona,36.0544445,-112.1401108,2015-04-02,2015,April,Thursday
12820,Simi Valley (Calif),United States,California,34.2694474,-118.781482,2015-04-02,2015,April,Thursday
12821,"East Harlem (Manhattan, NY)",United States,New York,40.7957399,-73.93892129999999,2015-04-03,2015,April,Friday
12823,Irving (Tex),United States,Texas,32.8140177,-96.9488945,2015-04-03,2015,April,Friday
12845,"Coney Island (Brooklyn, NY)",United States,New York,40.5755438,-73.9707016,2015-04-03,2015,April,Friday
12863,Spring (Tex),United States,Texas,30.0799405,-95.41716009999999,2015-04-03,2015,April,Friday
12996,Stockton (Calif),United States,California,37.9577016,-121.2907796,2015-04-04,2015,April,Saturday
13010,Mackinac Island (Mich),United States,Michigan,45.8683129,-84.6275658,2015-04-04,2015,April,Saturday
13011,Ventura (Calif),United States,California,34.2804923,-119.2945199,2015-04-04,2015,April,Saturday
13021,Newton (Mass),United States,Massachusetts,42.3370413,-71.20922139999999,2015-04-04,2015,April,Saturday
13060,East Selma (Ala),United States,Alabama,32.4073589,-87.02110069999999,2015-04-04,2015,April,Saturday
13083,Archie Carr National Wildlife Refuge (Fla),United States,Florida,28.0006352,-80.5278702,2015-04-05,2015,April,Sunday
13125,Reston (Va),United States,Virginia,38.9586307,-77.35700279999999,2015-04-05,2015,April,Sunday
13302,"Upper West Side (Manhattan, NY)",United States,New York,40.7870106,-73.9753676,2015-04-07,2015,April,Tuesday
13307,Brasilia (Brazil),Brazil,Federal District,-15.826691,-47.92182039999999,2015-04-07,2015,April,Tuesday
13325,Winsted (Conn),United States,Connecticut,41.9212066,-73.0601078,2015-04-07,2015,April,Tuesday
13433,Columbine (Colo),United States,Colorado,39.5877657,-105.0694295,2015-04-08,2015,April,Wednesday
13441,Carmel (Calif),United States,California,36.5552386,-121.9232879,2015-04-08,2015,April,Wednesday
13636,Ohio River,United States, ,38.8686397,-84.7821027,2015-04-09,2015,April,Thursday
13643,Burlington (NJ),United States,New Jersey,40.071222,-74.86488729999999,2015-04-09,2015,April,Thursday
13696,Roseburg (Ore),United States,Oregon,43.216505,-123.3417381,2015-04-09,2015,April,Thursday
13775,Davie (Fla),United States,Florida,26.0764783,-80.25211569999999,2015-04-10,2015,April,Friday
13782,Oakland (Calif),United States,California,37.8043514,-122.2711639,2015-04-10,2015,April,Friday
13924,St Vincent,United States,Arkansas,36.3307704,-94.1363021,2015-04-11,2015,April,Saturday
13950,Nicaragua,Nicaragua, ,12.865416,-85.207229,2015-04-11,2015,April,Saturday
14000,Tuxedo (NY),United States,New York,41.2376671,-74.1944529,2015-04-12,2015,April,Sunday
14066,Corvallis (Ore),United States,Oregon,44.5645659,-123.2620435,2015-04-12,2015,April,Sunday
14091,Flint (Mich),United States,Michigan,43.0125274,-83.6874562,2015-04-12,2015,April,Sunday
14179,Flagstaff (Ariz),United States,Arizona,35.1982836,-111.651302,2015-04-13,2015,April,Monday
14281,Ghana,Ghana, ,7.946527,-1.023194,2015-04-13,2015,April,Monday
14339,Guinea,Guinea, ,9.945587,-9.696645,2015-04-14,2015,April,Tuesday
14368,Hopkinton (Mass),United States,Massachusetts,42.22869540000001,-71.5225646,2015-04-14,2015,April,Tuesday
14461,Belarus,Belarus, ,53.709807,27.953389,2015-04-15,2015,April,Wednesday
14526,Boulder (Colo),United States,Colorado,40.0149856,-105.2705456,2015-04-15,2015,April,Wednesday
14544,Jacksonville (Fla),United States,Florida,30.3321838,-81.65565099999999,2015-04-15,2015,April,Wednesday
14691,Southern Ocean, , ,-68.4380135,-160.2340459,2015-04-16,2015,April,Thursday
14705,Fort Myers (Fla),United States,Florida,26.640628,-81.8723084,2015-04-16,2015,April,Thursday
14754,Perry County (Ala),United States,Alabama,32.598888,-87.30161319999999,2015-04-16,2015,April,Thursday
14816,Doha (Qatar),Qatar,Doha,25.2854473,51.53103979999999,2015-04-16,2015,April,Thursday
14839,Lake Iseo (Italy),Italy,Lombardy,45.721871,10.0670398,2015-04-16,2015,April,Thursday
14851,Norway,Norway, ,60.47202399999999,8.468945999999999,2015-04-17,2015,April,Friday
14951,Verbier (Switzerland),Switzerland,Valais,46.0960814,7.2285512,2015-04-17,2015,April,Friday
14954,Mediterranean Sea, , ,34.5531284,18.0480105,2015-04-17,2015,April,Friday
15022,Jakarta (Indonesia),Indonesia,Jakarta,-6.2087634,106.845599,2015-04-18,2015,April,Saturday
15095,"Fifth Avenue (Manhattan, NY)",United States,New York,40.7744146,-73.9656177,2015-04-19,2015,April,Sunday
15096,Great Salt Lake (Utah),United States,Utah,41.115791,-112.4768287,2015-04-19,2015,April,Sunday
15124,New Delhi (India),India,Delhi,28.6139391,77.2090212,2015-04-19,2015,April,Sunday
15151,Beringia,United States,Wyoming,43.6207743,-110.624966,2015-04-19,2015,April,Sunday
15210,Fort Bragg (NC),United States,North Carolina,35.1414552,-79.0079949,2015-04-20,2015,April,Monday
15215,"Downtown Brooklyn (Brooklyn, NY)",United States,New York,40.6960679,-73.9845407,2015-04-20,2015,April,Monday
15247,Henderson (Nev),United States,Nevada,36.0395247,-114.9817213,2015-04-20,2015,April,Monday
15302,Abbottabad (Pakistan),Pakistan,Khyber Pakhtunkhwa,34.1687502,73.2214982,2015-04-20,2015,April,Monday
15385,Gulf of Maine, , ,43.1335954,-68.3266403,2015-04-21,2015,April,Tuesday
15419,Honolulu (Hawaii),United States,Hawaii,21.3069444,-157.8583333,2015-04-21,2015,April,Tuesday
15503,Sinai Peninsula (Egypt),Egypt,South Sinai Governorate,29.5,34,2015-04-22,2015,April,Wednesday
15597,Omaha (Neb),United States,Nebraska,41.2565369,-95.9345034,2015-04-22,2015,April,Wednesday
15620,Palatine (Ill),United States,Illinois,42.1103041,-88.03424000000001,2015-04-22,2015,April,Wednesday
15684,Point Reyes (Calif),United States,California,38.017769,-122.9912711,2015-04-22,2015,April,Wednesday
15771,Pagedale (Mo),United States,Missouri,38.6833847,-90.30761430000001,2015-04-23,2015,April,Thursday
15913,Canon City (Colo),United States,Colorado,38.4494063,-105.2253316,2015-04-24,2015,April,Friday
15936,Inkster (Mich),United States,Michigan,42.2942045,-83.30993029999999,2015-04-24,2015,April,Friday
15973,Columbia (Mo),United States,Missouri,38.9517053,-92.3340724,2015-04-24,2015,April,Friday
15994,Prince George's County (Md),United States,Maryland,38.78492110000001,-76.8720961,2015-04-25,2015,April,Saturday
16014,Pangaea,United States,Oklahoma,35.637315,-97.44623899999999,2015-04-25,2015,April,Saturday
16123,AKRON (OHIO),United States,Ohio,41.0814447,-81.51900529999999,2015-04-26,2015,April,Sunday
16215,Hawaii (The Big Island),United States,Hawaii,19.5429151,-155.6658568,2015-04-27,2015,April,Monday
16244,Melbourne (Australia),Australia,Victoria,-37.8136276,144.9630576,2015-04-27,2015,April,Monday
16277,Palm Beach Gardens (Fla),United States,Florida,26.8396096,-80.1019144,2015-04-27,2015,April,Monday
16297,Boca Raton (Fla),United States,Florida,26.3683064,-80.1289321,2015-04-27,2015,April,Monday
16374,Cork (Ireland),Ireland,County Cork,51.8985143,-8.4756035,2015-04-27,2015,April,Monday
16440,ALAMEDA COUNTY (CALIF),United States,California,37.7798721,-122.2821855,2015-04-28,2015,April,Tuesday
16491,AMARILLO (TEX),United States,Texas,35.2219971,-101.8312969,2015-04-28,2015,April,Tuesday
16508,Chestertown (Md),United States,Maryland,39.21886629999999,-76.0690036,2015-04-28,2015,April,Tuesday
16605,Downey (Calif),United States,California,33.9401088,-118.1331593,2015-04-29,2015,April,Wednesday
16611,Santa Monica (Calif),United States,California,34.0194543,-118.4911912,2015-04-29,2015,April,Wednesday
16620,Bolivia,Bolivia, ,-16.290154,-63.58865299999999,2015-04-29,2015,April,Wednesday
16730,Santa Rosa (Calif),United States,California,38.440429,-122.7140548,2015-04-29,2015,April,Wednesday
16765,Xinjiang (China),China,Xinjiang,42.5246357,87.5395855,2015-04-29,2015,April,Wednesday
16766,Siberia,Russia, ,61.01370970000001,99.1966559,2015-04-29,2015,April,Wednesday
16773,Anatolia,United States,Tennessee,36.1296786,-86.8518938,2015-04-30,2015,April,Thursday
16807,Thailand,Thailand, ,15.870032,100.992541,2015-04-30,2015,April,Thursday
16827,Bern (Switzerland),Switzerland,Canton of Bern,46.9479739,7.4474468,2015-04-30,2015,April,Thursday
16860,Zagreb (Croatia),Croatia, ,45.8150108,15.9819189,2015-04-30,2015,April,Thursday
16862,West Bank, ,West Bank,31.9465703,35.3027226,2015-04-30,2015,April,Thursday
16954,Macau,Macao, ,22.198745,113.543873,2015-05-01,2015,May,Friday
16961,Honduras,Honduras, ,15.199999,-86.241905,2015-05-01,2015,May,Friday
16962,Cape Cod (Mass),United States,Massachusetts,41.6687897,-70.29624079999999,2015-05-01,2015,May,Friday
16985,Rio de Janeiro (Brazil),Brazil,State of Rio de Janeiro,-22.9068467,-43.1728965,2015-05-01,2015,May,Friday
17072,Rwanda,Rwanda, ,-1.940278,29.873888,2015-05-02,2015,May,Saturday
17112,Macon (Ga),United States,Georgia,32.8406946,-83.6324022,2015-05-02,2015,May,Saturday
17156,"East Broadway (Manhattan, NY)",United States,New York,40.7140636,-73.9901951,2015-05-03,2015,May,Sunday
17157,New York Metropolitan Area,United States, ,40.7127761,-74.0059544,2015-05-03,2015,May,Sunday
17188,"Clinton Hill (Brooklyn, NY)",United States,New York,40.6896834,-73.9661144,2015-05-03,2015,May,Sunday
17197,North Pole, , ,89.99999989999999,-135,2015-05-03,2015,May,Sunday
17274,Hvidovre (Denmark),Denmark, ,55.64252200000001,12.4753859,2015-05-04,2015,May,Monday
17310,Sun City (Ariz),United States,Arizona,33.5975393,-112.2718239,2015-05-04,2015,May,Monday
17325,Beirut (Lebanon),Lebanon,Beirut Governorate,33.8937913,35.5017767,2015-05-04,2015,May,Monday
17358,Jordan,United States,Oklahoma,36.1500042,-95.9882368,2015-05-05,2015,May,Tuesday
17378,Raleigh (NC),United States,North Carolina,35.7795897,-78.6381787,2015-05-05,2015,May,Tuesday
17381,North Adams (Mass),United States,Massachusetts,42.70091499999999,-73.1087148,2015-05-05,2015,May,Tuesday
17434,Riverside (Calif),United States,California,33.9806005,-117.3754942,2015-05-05,2015,May,Tuesday
17438,Taiwan,Taiwan, ,23.69781,120.960515,2015-05-05,2015,May,Tuesday
17449,Highland Park (Ill),United States,Illinois,42.1816918,-87.8003437,2015-05-05,2015,May,Tuesday
17569,Lewiston (Me),United States,Maine,44.100351,-70.21477639999999,2015-05-06,2015,May,Wednesday
17600,Valdosta (Ga),United States,Georgia,30.8327022,-83.2784851,2015-05-06,2015,May,Wednesday
17747,Auburn Hills (Mich),United States,Michigan,42.6875323,-83.2341028,2015-05-07,2015,May,Thursday
17832,Denton (Tex),United States,Texas,33.2148412,-97.13306829999999,2015-05-08,2015,May,Friday
17838,San Jose (Calif),United States,California,37.3382082,-121.8863286,2015-05-08,2015,May,Friday
17847,Galapagos Islands,Ecuador,Galápagos Islands,-0.383106,-90.4233344,2015-05-08,2015,May,Friday
17893,Uzbekistan,Uzbekistan, ,41.377491,64.585262,2015-05-08,2015,May,Friday
17971,Murfreesboro (Tenn),United States,Tennessee,35.8456213,-86.39027,2015-05-10,2015,May,Sunday
17992,York (England),United Kingdom,England,53.95996510000001,-1.0872979,2015-05-10,2015,May,Sunday
18035,Pakistan,Pakistan, ,30.375321,69.34511599999999,2015-05-10,2015,May,Sunday
18044,Raqqa (Syria),Syria,Ar-Raqqah,35.9594106,38.9981052,2015-05-10,2015,May,Sunday
18230,Manchester (NH),United States,New Hampshire,42.9956397,-71.4547891,2015-05-11,2015,May,Monday
18245,Zimbabwe,Zimbabwe, ,-19.015438,29.154857,2015-05-12,2015,May,Tuesday
18278,Nashua (NH),United States,New Hampshire,42.7653662,-71.46756599999999,2015-05-12,2015,May,Tuesday
18296,Stamford (Conn),United States,Connecticut,41.0534302,-73.5387341,2015-05-12,2015,May,Tuesday
18321,Grand Rapids (Mich),United States,Michigan,42.9633599,-85.6680863,2015-05-12,2015,May,Tuesday
18326,White Plains (NY),United States,New York,41.03398620000001,-73.7629097,2015-05-12,2015,May,Tuesday
18347,Edison (NJ),United States,New Jersey,40.5187154,-74.4120953,2015-05-12,2015,May,Tuesday
18361,Bagram Air Base (Afghanistan),Afghanistan,Parwan,34.9402503,69.2549736,2015-05-12,2015,May,Tuesday
18431,"Financial District (Manhattan, NY)",United States,New York,40.7077143,-74.00827869999999,2015-05-13,2015,May,Wednesday
18453,Pocatello (Idaho),United States,Idaho,42.8621042,-112.4506191,2015-05-13,2015,May,Wednesday
18464,Lebanon,Lebanon, ,33.854721,35.862285,2015-05-13,2015,May,Wednesday
18496,"Forest Hills (Queens, NY)",United States,New York,40.718106,-73.8448469,2015-05-13,2015,May,Wednesday
18552,Polynesia, , ,-16.8395019,-148.3716902,2015-05-14,2015,May,Thursday
18578,Tarrant County (Tex),United States,Texas,32.7732044,-97.35165579999999,2015-05-14,2015,May,Thursday
18618,Plainsboro (NJ),United States,New Jersey,40.3382543,-74.585292,2015-05-14,2015,May,Thursday
18720,Meramec River (Missouri),United States,Missouri,38.2855398,-90.9168401,2015-05-15,2015,May,Friday
18726,Marfa (Tex),United States,Texas,30.3094622,-104.020623,2015-05-15,2015,May,Friday
18826,Majorca (Spain),Spain,Balearic Islands,39.6952629,3.0175712,2015-05-15,2015,May,Friday
18831,"Midtown Area (Manhattan, NY)",United States,New York,40.7549309,-73.9840195,2015-05-15,2015,May,Friday
18904,"Borough Park (Brooklyn, NY)",United States,New York,40.6350319,-73.9921028,2015-05-17,2015,May,Sunday
18923,Cayman Islands,Cayman Islands, ,19.3133,-81.2546,2015-05-17,2015,May,Sunday
18963,Princeton (NJ),United States,New Jersey,40.3572976,-74.6672226,2015-05-17,2015,May,Sunday
18973,Malheur National Wildlife Refuge (Oregon),United States,Oregon,43.26566649999999,-118.8440148,2015-05-17,2015,May,Sunday
19091,Zhejiang Province (China),China,Zhejiang,29.1416432,119.7889248,2015-05-19,2015,May,Tuesday
19096,"Greenwich Village (Manhattan, NY)",United States,New York,40.7335719,-74.0027418,2015-05-19,2015,May,Tuesday
19151,Harrisonburg (Va),United States,Virginia,38.4495688,-78.8689155,2015-05-19,2015,May,Tuesday
19227,"Herald Square (Manhattan, NY)",United States,New York,40.750247,-73.98770999999999,2015-05-20,2015,May,Wednesday
19270,Middletown (RI),United States,Rhode Island,41.5218243,-71.2834538,2015-05-20,2015,May,Wednesday
19271,Montgomery County (Pa),United States,Pennsylvania,40.2290075,-75.3878525,2015-05-20,2015,May,Wednesday
19294,Redondo Beach (Calif),United States,California,33.8491816,-118.3884078,2015-05-20,2015,May,Wednesday
19311,Otisville (NY),United States,New York,41.47342680000001,-74.5384933,2015-05-20,2015,May,Wednesday
19317,Frankstown Township (Pa),United States,Pennsylvania,40.4662798,-78.3159411,2015-05-20,2015,May,Wednesday
19324,Baton Rouge (La),United States,Louisiana,30.4514677,-91.18714659999999,2015-05-21,2015,May,Thursday
19365,Miami-Dade County (Fla),United States,Florida,25.5516034,-80.6326916,2015-05-21,2015,May,Thursday
19368,Fairfield (Conn),United States,Connecticut,41.1408363,-73.2612615,2015-05-21,2015,May,Thursday
19436,Oman,Oman, ,21.4735329,55.975413,2015-05-21,2015,May,Thursday
19479,Hanover (NH),United States,New Hampshire,43.7022451,-72.2895526,2015-05-22,2015,May,Friday
19496,Klamath River,United States, ,41.77847140000001,-123.0336387,2015-05-22,2015,May,Friday
19497,Brittany (France),France,Brittany,48.2020471,-2.9326435,2015-05-22,2015,May,Friday
19547,Kuwait,Kuwait, ,29.31166,47.481766,2015-05-22,2015,May,Friday
19601,Vandenberg Air Force Base (Calif),United States,California,34.7420267,-120.5724404,2015-05-23,2015,May,Saturday
19626,Burns (Ore),United States,Oregon,43.5862606,-119.0541032,2015-05-23,2015,May,Saturday
19660,Patagonia (Argentina), , ,-41.8101472,-68.9062689,2015-05-24,2015,May,Sunday
19671,Marion (Ala),United States,Alabama,32.6323536,-87.3191655,2015-05-24,2015,May,Sunday
19675,Guangdong Province (China),China,Guangdong Province,23.3790333,113.7632828,2015-05-24,2015,May,Sunday
19677,Dongguan (China),China,Guangdong Province,23.020673,113.751799,2015-05-24,2015,May,Sunday
19799,Wasilla (Alaska),United States,Alaska,61.58087629999999,-149.4410598,2015-05-25,2015,May,Monday
19827,Hildale (Utah),United States,Utah,37.0035953,-112.9668812,2015-05-26,2015,May,Tuesday
19994,Baghdad (Iraq),Iraq,Baghdad Governorate,33.315241,44.3660671,2015-05-27,2015,May,Wednesday
20057,Santa Ana (Calif),United States,California,33.7454725,-117.867653,2015-05-28,2015,May,Thursday
20168,Oakland County (Mich),United States,Michigan,42.59219239999999,-83.33618799999999,2015-05-29,2015,May,Friday
20172,East Cleveland (Ohio),United States,Ohio,41.5331066,-81.57901369999999,2015-05-29,2015,May,Friday
20215,Tiananmen Square (Beijing),China,Beijing,39.9054895,116.3976317,2015-05-29,2015,May,Friday
20275,Auburn (Ala),United States,Alabama,32.6098566,-85.48078249999999,2015-05-30,2015,May,Saturday
20294,Manitowoc (Wis),United States,Wisconsin,44.0886059,-87.657584,2015-05-30,2015,May,Saturday
20385,La Jolla (Calif),United States,California,32.8328112,-117.2712717,2015-05-31,2015,May,Sunday
20398,Harrisburg (Pa),United States,Pennsylvania,40.2731911,-76.8867008,2015-05-31,2015,May,Sunday
20406,Springfield (Ill),United States,Illinois,39.78172130000001,-89.6501481,2015-05-31,2015,May,Sunday
20479,Chappaqua (NY),United States,New York,41.1595399,-73.764855,2015-06-01,2015,June,Monday
20926,Williston (ND),United States,North Dakota,48.1469683,-103.6179745,2015-06-04,2015,June,Thursday
20935,Westport (Conn),United States,Connecticut,41.1414717,-73.3579049,2015-06-04,2015,June,Thursday
20945,Rancho Mirage (Calif),United States,California,33.739744,-116.41279,2015-06-04,2015,June,Thursday
20946,Sebring (Ohio),United States,Ohio,40.9228363,-81.01898159999999,2015-06-04,2015,June,Thursday
21010,AIKEN (SC),United States,South Carolina,33.5604168,-81.7195533,2015-06-05,2015,June,Friday
21043,Asbury Park (NJ),United States,New Jersey,40.2203907,-74.0120817,2015-06-05,2015,June,Friday
21069,El Cajon (Calif),United States,California,32.7947731,-116.9625269,2015-06-05,2015,June,Friday
21104,Compton (Calif),United States,California,33.8958492,-118.2200712,2015-06-05,2015,June,Friday
21134,Abingdon (Md),United States,Maryland,39.4622357,-76.27722229999999,2015-06-06,2015,June,Saturday
21140,Orangeburg (SC),United States,South Carolina,33.4918203,-80.8556476,2015-06-07,2015,June,Sunday
21191,McAllen (Tex),United States,Texas,26.2034071,-98.23001239999999,2015-06-07,2015,June,Sunday
21256,Glendale (Ariz),United States,Arizona,33.5386523,-112.1859866,2015-06-07,2015,June,Sunday
21358,Peru,Peru, ,-9.189967,-75.015152,2015-06-08,2015,June,Monday
21422,Tucson (Ariz),United States,Arizona,32.2226066,-110.9747108,2015-06-09,2015,June,Tuesday
21456,Hailey (Idaho),United States,Idaho,43.51962880000001,-114.3153245,2015-06-09,2015,June,Tuesday
21457,AMERICAN SAMOA,American Samoa, ,-14.270972,-170.132217,2015-06-09,2015,June,Tuesday
21483,West Palm Beach (Fla),United States,Florida,26.7153424,-80.0533746,2015-06-09,2015,June,Tuesday
21599,San Fernando Valley (Calif),United States,California,34.1825782,-118.4396756,2015-06-10,2015,June,Wednesday
21683,Monroeville (Ala),United States,Alabama,31.5279399,-87.32470769999999,2015-06-10,2015,June,Wednesday
21700,Kalamazoo (Mich),United States,Michigan,42.2917069,-85.5872286,2015-06-10,2015,June,Wednesday
21775,Rio Grande Valley (Tex),United States,Texas,26.3074672,-98.174185,2015-06-11,2015,June,Thursday
21779,Death Valley National Park,United States, ,36.5053891,-117.0794078,2015-06-11,2015,June,Thursday
21780,Fort Leavenworth (Kan),United States,Kansas,39.3111112,-94.9224637,2015-06-11,2015,June,Thursday
21786,Fairfax (Va),United States,Virginia,38.84622359999999,-77.30637329999999,2015-06-11,2015,June,Thursday
21835,Martins Beach (Calif),United States,California,37.3736981,-122.4083224,2015-06-11,2015,June,Thursday
21904,Virginia Beach (Va),United States,Virginia,36.8529263,-75.97798499999999,2015-06-12,2015,June,Friday
21905,Gulfport (Miss),United States,Mississippi,30.3674198,-89.0928155,2015-06-12,2015,June,Friday
21965,"Lower East Side (Manhattan, NY)",United States,New York,40.715033,-73.9842724,2015-06-12,2015,June,Friday
21994,Hesston (Kan),United States,Kansas,38.1383437,-97.43142669999999,2015-06-12,2015,June,Friday
22039,Dominican Republic,Dominican Republic, ,18.735693,-70.162651,2015-06-12,2015,June,Friday
22065,Oahu (Hawaii),United States,Hawaii,21.4389123,-158.0000565,2015-06-12,2015,June,Friday
22097,ANAHEIM (CALIF),United States,California,33.8365932,-117.9143012,2015-06-13,2015,June,Saturday
22277,Johnstown (Pa),United States,Pennsylvania,40.32674069999999,-78.9219698,2015-06-15,2015,June,Monday
22308,Niger Delta (Nigeria),United States,District of Columbia,38.9019422,-77.0332115,2015-06-15,2015,June,Monday
22447,St Petersburg (Fla),United States,Florida,27.7676008,-82.64029149999999,2015-06-15,2015,June,Monday
22451,Sagaponack (NY),United States,New York,40.9253776,-72.2781375,2015-06-15,2015,June,Monday
22549,Midwestern States (US),United States, ,37.09024,-95.712891,2015-06-16,2015,June,Tuesday
22598,Malawi,Malawi, ,-13.254308,34.301525,2015-06-16,2015,June,Tuesday
22625,Greensboro (NC),United States,North Carolina,36.0726354,-79.7919754,2015-06-17,2015,June,Wednesday
22648,"Abraham Lake (Alberta, Canada)",Canada,Alberta,52.223611,-116.427222,2015-06-17,2015,June,Wednesday
22657,Garden State Parkway (NJ),United States,New Jersey,39.9826801,-74.21357189999999,2015-06-17,2015,June,Wednesday
22781,Wilkinsburg (Pa),United States,Pennsylvania,40.4417355,-79.8819942,2015-06-17,2015,June,Wednesday
22823,Fayetteville (NC),United States,North Carolina,35.0526641,-78.87835849999999,2015-06-18,2015,June,Thursday
22878,Florida Keys,United States,Florida,25.0273356,-81.5357506,2015-06-18,2015,June,Thursday
22934,Northern Mariana Islands,Northern Mariana Islands, ,15.0979,145.6739,2015-06-18,2015,June,Thursday
22971,Tampa (Fla),United States,Florida,27.950575,-82.4571776,2015-06-18,2015,June,Thursday
23068,Quonset Point (RI),United States,Rhode Island,41.5901015,-71.4042218,2015-06-19,2015,June,Friday
23106,"Flushing (Queens, NY)",United States,New York,40.7674987,-73.833079,2015-06-19,2015,June,Friday
23217,Melanesia, , ,-8.190185699999999,152.8264684,2015-06-20,2015,June,Saturday
23226,Farmers Branch (Tex),United States,Texas,32.9265137,-96.89611509999999,2015-06-20,2015,June,Saturday
23318,Seneca Lake (NY),United States,New York,42.6918497,-76.92019200000001,2015-06-21,2015,June,Sunday
23401,ALGERIA,Algeria, ,28.033886,1.659626,2015-06-21,2015,June,Sunday
23456,Everett (Wash),United States,Washington,47.9789848,-122.2020795,2015-06-21,2015,June,Sunday
23761,Fall River (Mass),United States,Massachusetts,41.7014912,-71.1550451,2015-06-23,2015,June,Tuesday
23768,Saskatchewan (Canada),Canada,Saskatchewan,52.9399159,-106.4508639,2015-06-23,2015,June,Tuesday
23780,Virgin Islands (US),U.S. Virgin Islands, ,18.335765,-64.896335,2015-06-23,2015,June,Tuesday
23915,"Battery Park City (Manhattan, NY)",United States,New York,40.7115786,-74.0158441,2015-06-24,2015,June,Wednesday
23957,Purchase (NY),United States,New York,41.0400135,-73.7144477,2015-06-24,2015,June,Wednesday
23996,Elkhart (Ind),United States,Indiana,41.6812083,-85.9656249,2015-06-24,2015,June,Wednesday
24007,Fargo (ND),United States,North Dakota,46.8771863,-96.7898034,2015-06-25,2015,June,Thursday
24066,Kigali (Rwanda),Rwanda,Kigali City,-1.9440727,30.0618851,2015-06-25,2015,June,Thursday
24109,"Brooklyn Navy Yard (Brooklyn, NY)",United States,New York,40.698841,-73.9786453,2015-06-25,2015,June,Thursday
24157,Vernal (Utah),United States,Utah,40.4555157,-109.5287479,2015-06-25,2015,June,Thursday
24174,Bethpage (NY),United States,New York,40.7442664,-73.4820687,2015-06-26,2015,June,Friday
24262,Pueblo (Colo),United States,Colorado,38.2544472,-104.6091409,2015-06-26,2015,June,Friday
24264,Marietta (Ohio),United States,Ohio,39.41535200000001,-81.45484359999999,2015-06-26,2015,June,Friday
24320,"Brighton Beach (Brooklyn, NY)",United States,New York,40.5780706,-73.9596565,2015-06-27,2015,June,Saturday
24340,Yaroslavl (Russia),Russia,Yaroslavl Oblast,57.62607440000001,39.8844709,2015-06-27,2015,June,Saturday
24358,Selinsgrove (Pa),United States,Pennsylvania,40.7989735,-76.8621935,2015-06-28,2015,June,Sunday
24360,Hawthorne (Calif),United States,California,33.9164032,-118.3525748,2015-06-28,2015,June,Sunday
24371,My Lai (Vietnam),Vietnam,Quang Ngai,15.1801868,108.8863424,2015-06-28,2015,June,Sunday
24417,"Kew Gardens (Queens, NY)",United States,New York,40.705695,-73.8272029,2015-06-28,2015,June,Sunday
24460,Binghamton (NY),United States,New York,42.09868669999999,-75.91797380000001,2015-06-28,2015,June,Sunday
24533,Dearborn (Mich),United States,Michigan,42.3222599,-83.17631449999999,2015-06-29,2015,June,Monday
24620,"Washington Square Park (Manhattan, NY)",United States,New York,40.7308838,-73.997332,2015-06-29,2015,June,Monday
24630,Palos Verdes (Calif),United States,California,33.7444613,-118.3870173,2015-06-29,2015,June,Monday
24667,Windham (NH),United States,New Hampshire,42.8006441,-71.30422899999999,2015-06-30,2015,June,Tuesday
24680,"Rodeo Drive (Beverly Hills, Calif)",United States,California,34.0699649,-118.4037817,2015-06-30,2015,June,Tuesday
24692,Rome (Italy),Italy,Lazio,41.9027835,12.4963655,2015-06-30,2015,June,Tuesday
24720,Jackson (Miss),United States,Mississippi,32.2987573,-90.1848103,2015-06-30,2015,June,Tuesday
24835,Redwood National and State Parks (Calif),United States,California,41.2131788,-124.0046275,2015-06-30,2015,June,Tuesday
24886,ARLINGTON (VA),United States,Virginia,38.8799697,-77.1067698,2015-07-01,2015,July,Wednesday
24941,Clarksville (Tenn),United States,Tennessee,36.5297706,-87.3594528,2015-07-01,2015,July,Wednesday
24962,Sri Lanka,Sri Lanka, ,7.873053999999999,80.77179699999999,2015-07-01,2015,July,Wednesday
24983,Newtown (Conn),United States,Connecticut,41.4141172,-73.3035651,2015-07-01,2015,July,Wednesday
25009,Tijuana (Mexico),Mexico,Baja California,32.5149469,-117.0382471,2015-07-01,2015,July,Wednesday
25076,Inyo National Forest (Calif),United States,California,37.2507955,-118.4908025,2015-07-01,2015,July,Wednesday
25099,Appling (Ga),United States,Georgia,33.54609000000001,-82.3163154,2015-07-02,2015,July,Thursday
25193,Tanzania,Tanzania, ,-6.369028,34.888822,2015-07-02,2015,July,Thursday
25242,Paterson (NJ),United States,New Jersey,40.9167654,-74.17181099999999,2015-07-02,2015,July,Thursday
25414,Costa Mesa (Calif),United States,California,33.6638439,-117.9047429,2015-07-03,2015,July,Friday
25416,Caspian Sea, , ,41.934977,50.66894500000001,2015-07-03,2015,July,Friday
25629,Iwo Jima (Japan),Japan,Tokyo,24.7875734,141.3155653,2015-07-06,2015,July,Monday
25768,ANN ARBOR (MICH),United States,Michigan,42.2808256,-83.7430378,2015-07-07,2015,July,Tuesday
25770,McDowell County (W Va),United States,West Virginia,37.3860467,-81.64734399999999,2015-07-07,2015,July,Tuesday
25814,Manitoba (Canada),Canada,Manitoba,53.7608608,-98.8138762,2015-07-07,2015,July,Tuesday
25966,Columbia River (Pacific Northwest), , ,47.4537758,-120.3251007,2015-07-07,2015,July,Tuesday
25990,Newport (Vt),United States,Vermont,44.9364356,-72.2051022,2015-07-08,2015,July,Wednesday
26058,West (Tex),United States,Texas,32.433296,-99.72337800000001,2015-07-08,2015,July,Wednesday
26201,Fresno (Calif),United States,California,36.7377981,-119.7871247,2015-07-09,2015,July,Thursday
26347,Santa Barbara (Calif),United States,California,34.4208305,-119.6981901,2015-07-09,2015,July,Thursday
26358,Chester (Conn),United States,Connecticut,41.4022081,-72.4824991,2015-07-09,2015,July,Thursday
26479,Port St Lucie (Fla),United States,Florida,27.2730492,-80.3582261,2015-07-10,2015,July,Friday
26524,Montreal (Quebec),Canada,Quebec,45.5016889,-73.567256,2015-07-10,2015,July,Friday
26531,Cape Verde,Cape Verde, ,16.5388,-23.0418,2015-07-10,2015,July,Friday
26724,Dandong (China),China,Liaoning,40.000787,124.35445,2015-07-11,2015,July,Saturday
26862,Lake Mead,United States, ,36.1435231,-114.4144415,2015-07-12,2015,July,Sunday
26866,Ross (ND),United States,North Dakota,48.3111302,-102.5465682,2015-07-12,2015,July,Sunday
26917,Geneva (Switzerland),Switzerland,Geneva,46.2043907,6.1431577,2015-07-13,2015,July,Monday
26922,Quabbin Reservoir (Mass),United States,Massachusetts,42.3830198,-72.3133529,2015-07-13,2015,July,Monday
26964,East Hampton (NY),United States,New York,40.96343350000001,-72.1848009,2015-07-13,2015,July,Monday
27164,Brazos River (Tex),United States,Texas,31.5777142,-97.14893219999999,2015-07-14,2015,July,Tuesday
27293,Cleveland (Miss),United States,Mississippi,33.7440023,-90.7248187,2015-07-14,2015,July,Tuesday
27365,Granada (Spain),Spain,Andalusia,37.1773363,-3.5985571,2015-07-15,2015,July,Wednesday
27431,Flores (Indonesia),Indonesia,East Nusa Tenggara,-8.657381899999999,121.0793705,2015-07-15,2015,July,Wednesday
27537,Hardwick (Vt),United States,Vermont,44.5416243,-72.34868019999999,2015-07-15,2015,July,Wednesday
27549,Grand Canyon National Park,United States,Arizona,36.1069258,-112.1129484,2015-07-16,2015,July,Thursday
27551,"Bowery (Manhattan, NY)",United States,New York,40.725257,-73.9903489,2015-07-16,2015,July,Thursday
27619,Northampton (Mass),United States,Massachusetts,42.3250896,-72.64120129999999,2015-07-16,2015,July,Thursday
27681,Petra (Jordan),Jordan,Ma'an Governorate,30.3284544,35.4443622,2015-07-16,2015,July,Thursday
27961,Key Biscayne (Fla),United States,Florida,25.693713,-80.1628248,2015-07-17,2015,July,Friday
28311,Lake Michigan,United States, ,43.4501005,-87.22201869999999,2015-07-20,2015,July,Monday
28322,Petaluma (Calif),United States,California,38.232417,-122.6366524,2015-07-20,2015,July,Monday
28362,Cambridge (England),United Kingdom,England,52.205337,0.121817,2015-07-20,2015,July,Monday
28394,Lake Tahoe (Nev),United States, ,39.0968493,-120.0323507,2015-07-20,2015,July,Monday
28408,Katy (Tex),United States,Texas,29.7857765,-95.8245093,2015-07-20,2015,July,Monday
28486,Silk Road (Ancient Trade Route), , , , ,2015-07-21,2015,July,Tuesday
28584,Andrews Air Force Base (Md),United States,Maryland,38.7965203,-76.8836261,2015-07-21,2015,July,Tuesday
28601,Thousand Islands, , ,44.2987749,-76.1468963,2015-07-21,2015,July,Tuesday
28618,Williston (Fla),United States,Florida,29.38747,-82.4467705,2015-07-21,2015,July,Tuesday
28638,Portsmouth (NH),United States,New Hampshire,43.0717552,-70.7625532,2015-07-22,2015,July,Wednesday
28679,Lake Okeechobee (Fla),United States,Florida,26.9689536,-80.79758340000001,2015-07-22,2015,July,Wednesday
28700,Rye (NY),United States,New York,40.9806535,-73.68373989999999,2015-07-22,2015,July,Wednesday
28714,Brewster (Mass),United States,Massachusetts,41.7600902,-70.0827905,2015-07-22,2015,July,Wednesday
28722,Telluride (Colo),United States,Colorado,37.9374939,-107.8122852,2015-07-22,2015,July,Wednesday
28725,Jamaica (West Indies),Jamaica, ,18.109581,-77.297508,2015-07-22,2015,July,Wednesday
28737,Tupelo (Miss),United States,Mississippi,34.2576066,-88.7033859,2015-07-22,2015,July,Wednesday
28777,Monessen (Pa),United States,Pennsylvania,40.1484053,-79.8878254,2015-07-22,2015,July,Wednesday
28865,Atlantic City (NJ),United States,New Jersey,39.3642834,-74.4229266,2015-07-23,2015,July,Thursday
28894,"Gottesman, Irving (1930-2016)", , , , ,2015-07-23,2015,July,Thursday
28939,Falcon Heights (Minn),United States,Minnesota,44.99163230000001,-93.166333,2015-07-23,2015,July,Thursday
29033,Manhasset (NY),United States,New York,40.7978787,-73.6995749,2015-07-24,2015,July,Friday
29093,Serbia,Serbia, ,44.016521,21.005859,2015-07-24,2015,July,Friday
29114,Hayward (Calif),United States,California,37.6687665,-122.0809964,2015-07-24,2015,July,Friday
29201,Little Rock (Ark),United States,Arkansas,34.7464809,-92.28959479999999,2015-07-24,2015,July,Friday
29221,Norfolk (Va),United States,Virginia,36.8507689,-76.28587259999999,2015-07-24,2015,July,Friday
29268,"Union Square (Manhattan, NY)",United States,New York,40.7358633,-73.9910835,2015-07-25,2015,July,Saturday
29331,AIX-EN-PROVENCE (FRANCE),France,Provence-Alpes-Côte d'Azur,43.529742,5.447426999999999,2015-07-26,2015,July,Sunday
29386,Huntington (NY),United States,New York,40.8681539,-73.425676,2015-07-26,2015,July,Sunday
29404,Pacific Crest Trail,United States, ,40.7542152,-121.3857233,2015-07-26,2015,July,Sunday
29408,Taipei (Taiwan),Taiwan, ,25.0329694,121.5654177,2015-07-26,2015,July,Sunday
29468,Lahore (Pakistan),Pakistan,Punjab,31.5203696,74.35874729999999,2015-07-27,2015,July,Monday
29475,Sevnica (Slovenia),Slovenia,Sevnica,46.0129508,15.2979868,2015-07-27,2015,July,Monday
29488,Panama Canal and Canal Zone,Panama,Panamá,8.9536661,-79.5377676,2015-07-27,2015,July,Monday
29599,Mauritania,Mauritania, ,21.00789,-10.940835,2015-07-28,2015,July,Tuesday
29601,Sausalito (Calif),United States,California,37.8590937,-122.4852507,2015-07-28,2015,July,Tuesday
29668,North Miami (Fla),United States,Florida,25.8900949,-80.1867138,2015-07-28,2015,July,Tuesday
29858,Fountain (Colo),United States,Colorado,38.682219,-104.7008056,2015-07-29,2015,July,Wednesday
29860,Delaware River,United States, ,40.676962,-75.1765326,2015-07-29,2015,July,Wednesday
30016,Scranton (Pa),United States,Pennsylvania,41.408969,-75.66241219999999,2015-07-30,2015,July,Thursday
30129,Laos,Laos, ,19.85627,102.495496,2015-07-30,2015,July,Thursday
30177,Ellicott City (Md),United States,Maryland,39.2673283,-76.7983067,2015-07-30,2015,July,Thursday
30186,Crimea (Ukraine), , ,45.3453029,34.4997274,2015-07-31,2015,July,Friday
30315,"Brooklyn Heights (Brooklyn, NY)",United States,New York,40.6959294,-73.9955523,2015-07-31,2015,July,Friday
30337,Randallstown (Md),United States,Maryland,39.3673278,-76.79525249999999,2015-07-31,2015,July,Friday
30598,Punta Gorda (Fla),United States,Florida,26.9297836,-82.0453664,2015-08-02,2015,August,Sunday
30619,Herat (Afghanistan),Afghanistan,Herat,34.352865,62.20402869999999,2015-08-02,2015,August,Sunday
30727,Pine Bluff (Ark),United States,Arkansas,34.2284312,-92.00319549999999,2015-08-03,2015,August,Monday
30806,Phoenix Islands (Kiribati),Kiribati,Phoenix Islands,-3.7208845,-170.7117394,2015-08-03,2015,August,Monday
31008,"Wynwood (Miami, Fla)",United States,Florida,25.8042441,-80.1989186,2015-08-04,2015,August,Tuesday
31040,Bavaria (Germany),Germany,Bavaria,48.7904472,11.4978895,2015-08-04,2015,August,Tuesday
31072,Johannesburg (South Africa),South Africa,Gauteng,-26.2041028,28.0473051,2015-08-04,2015,August,Tuesday
31116,Potomac River,United States, ,38.6537976,-77.2301856,2015-08-04,2015,August,Tuesday
31226,Midway Atoll,United States, ,28.2072168,-177.3734926,2015-08-05,2015,August,Wednesday
31258,Kenai Peninsula (Alaska),United States,Alaska,60.0858486,-151.382264,2015-08-05,2015,August,Wednesday
31275,Cape Cod National Seashore,United States,Massachusetts,41.9043472,-69.9789243,2015-08-05,2015,August,Wednesday
31283,Biloxi (Miss),United States,Mississippi,30.3960318,-88.88530779999999,2015-08-05,2015,August,Wednesday
31289,Durant (Miss),United States,Mississippi,33.0751289,-89.8545276,2015-08-05,2015,August,Wednesday
31339,Dudley (Mass),United States,Massachusetts,42.0433661,-71.9276033,2015-08-05,2015,August,Wednesday
31375,"Gowanus (Brooklyn, NY)",United States,New York,40.6751161,-73.9879753,2015-08-05,2015,August,Wednesday
31410,East Chicago (Ind),United States,Indiana,41.63920239999999,-87.4547635,2015-08-06,2015,August,Thursday
31536,Dearborn County (Ind),United States,Indiana,39.1713075,-84.981754,2015-08-07,2015,August,Friday
31572,Tasmania (Australia),Australia,Tasmania,-41.4545196,145.9706647,2015-08-07,2015,August,Friday
31638,Frederick (Md),United States,Maryland,39.41426879999999,-77.4105409,2015-08-07,2015,August,Friday
31654,Myanmar,Myanmar (Burma), ,21.916221,95.955974,2015-08-07,2015,August,Friday
31669,Redwood City (Calif),United States,California,37.4847955,-122.228141,2015-08-07,2015,August,Friday
31817,Portsmouth (Va),United States,Virginia,36.8354258,-76.2982742,2015-08-09,2015,August,Sunday
31873,Standing Rock Sioux Reservation (ND-SD),United States,North Dakota,45.7502748,-101.2004153,2015-08-09,2015,August,Sunday
31935,Ellis Island (NYC),United States, ,40.6994748,-74.0395587,2015-08-09,2015,August,Sunday
31967,Carlisle (England),United Kingdom,England,54.892473,-2.932931,2015-08-09,2015,August,Sunday
31994,Madagascar,Madagascar, ,-18.766947,46.869107,2015-08-09,2015,August,Sunday
32116,Glendale (Calif),United States,California,34.1425078,-118.255075,2015-08-10,2015,August,Monday
32118,Fort Pierce (Fla),United States,Florida,27.4467056,-80.3256056,2015-08-10,2015,August,Monday
32119,Marine Corps Recruit Depot Parris Island (SC),United States,South Carolina,32.3513924,-80.6891655,2015-08-10,2015,August,Monday
32137,Norwalk (Ohio),United States,Ohio,41.24255309999999,-82.6157331,2015-08-10,2015,August,Monday
32166,Venice (Italy),Italy,Veneto,45.4408474,12.3155151,2015-08-10,2015,August,Monday
32250,Seaside Park (NJ),United States,New Jersey,39.9267852,-74.0770806,2015-08-11,2015,August,Tuesday
32283,APPALACHIAN TRAIL,United States,West Virginia,39.325411,-77.740524,2015-08-11,2015,August,Tuesday
32296,St Cloud (Minn),United States,Minnesota,45.5579451,-94.16324039999999,2015-08-11,2015,August,Tuesday
32336,St Kilda Beach (Australia),Australia,Victoria,-37.8678765,144.9740049,2015-08-11,2015,August,Tuesday
32352,ANGKOR (CAMBODIA),Cambodia,Siem Reap Province,13.4124693,103.8669857,2015-08-11,2015,August,Tuesday
32551,Burlington (Wash),United States,Washington,48.4756621,-122.3254374,2015-08-12,2015,August,Wednesday
32554,Masada National Park (Israel),Israel,South District,31.3114167,35.36269550000001,2015-08-12,2015,August,Wednesday
32640,Hungary,Hungary, ,47.162494,19.5033041,2015-08-13,2015,August,Thursday
32714,Pawtucket (RI),United States,Rhode Island,41.878711,-71.38255579999999,2015-08-13,2015,August,Thursday
32724,Sanya (China),China,Hainan,18.252847,109.511909,2015-08-13,2015,August,Thursday
32733,Lawrence (Mass),United States,Massachusetts,42.7070354,-71.1631137,2015-08-13,2015,August,Thursday
32813,Grimes (Iowa),United States,Iowa,41.6883646,-93.7925199,2015-08-14,2015,August,Friday
